objectid,latitude,longitude,port_name,kode,fcode,srs_id,lcode,metadata,tipe_pp,nama_pp,alamat,kodepos,prov,kabkot,kd_prov,kd_kabkot,notelp,surel,sk_tap_rip,sk_tap_lok,izin_bng,thn_bng,izin_kmb,thn_kmb,izin_ops,thn_ops,aset,nilai_aset,stat_ops,klspel,stat_jln,kls_jln,pnj_jln,stat_rel,jml_pns,tipe_opera,operator,lintas,jns_kpl,hirrki,jml_dmg,pnj_dmg,dlm_klm,bbt_kapal,ls_lap_pmp,term_pnp,ls_trm_pnp,term_ptk,ls_trm_ptk,term_crhc,ls_crhc,term_crhk,ls_crhk,kap_lay_brg,ls_gdng_l1,ls_gdng_gp,ls_gdng_sc,ls_gdng_fd,ls_gdng_bd,ls_gdng_cd,ls_gdng_b3,ls_gdng_en,jml_bunker,kap_bunker,ls_kantor,ls_dag,kap_park,ls_park,ls_drh_krj_drt,ls_bng,ls_drh_krj_air,ls_drh_kep,remark,hirarki_p,kode_hirarki
308,0.11502975,117.4921875,Tanjung Laut  ,TLA,CB01050400,WGS1984,,Peta Sebaran Pelabuhan Umum skala 1:50.000.xml,Unit Penyelenggara Pelabuhan,Kantor Unit Penyelenggara Pelabuhan Kelas I Tanjung Laut,Jl. Pelabuahan No.28 Rt.10 Tanjung Laut Indah Bontang Kalimantan Timur 75321,,Kalimantan Timur,Bontang  ,64,64.74,,,,,,,,,,,,,Operasi,1,,,,,,,-,,,,,,,,,,,,,,,,,,,,,,,,,,,,,,,,,,,,,Pelabuhan Pengumpan,PP
43,-2.18620097,99.7314127,Siuban  ,SIUB,CB01050400,WGS1984,,Peta Sebaran Pelabuhan Umum skala 1:50.000.xml,0,0,MENTAWAI,,Sumatera Barat,Kepulauan Mentawai ,13,13.09,,,,,,,,,,,,,0,,,,,,,,0,,,,,,,,,,,,,,,,,,,,,,,,,,,,,,,,,,,,,Pelabuhan Pengumpan Regional,PR
196,-8.16087154,114.4369233,Gilimanuk   ,GIL,CB01050400,WGS1984,,Peta Sebaran Pelabuhan Umum skala 1:50.000.xml,0,0,"Jl. Parkir Manauver No. 5 Gilimanuk Kab. Jembrana, Bali - 82253",,Bali,Jembrana  ,51,51.01,,,,,,,,,,,,,0,,,,,,,,0,,,,,,,,,,,,,,,,,,,,,,,,,,,,,,,,,,,,,Pelabuhan Pengumpan Regional,PR
319,0.80875699,124.6593899,Kotabunan ,IKD,CB01050400,WGS1984,,Peta Sebaran Pelabuhan Umum skala 1:50.000.xml,0,0,Jl. KomPulau Pelabuhan Kotabaru Kec. Kotabunan Kab. Bomlang Kotabunan Sulut 95782,, Sulawesi Utara,Bolaang Mongondow Timur,71,71.1,,,,,,,,,,,,,0,,,,,,,,0,,,,,,,,,,,,,,,,,,,,,,,,,,,,,,,,,,,,,Pelabuhan Lokal,PL
332,4.43207898,125.6897732,Matutuang,MTT,CB01050400,WGS1984,,Peta Sebaran Pelabuhan Umum skala 1:50.000.xml,0,0,Jl.Pelabuhan Tahuna No.1 Kab .Kepl.Sangihe Tahuna Sulawesi Utara 95851,, Sulawesi Utara,Kepulauan Sangihe ,71,71.03,,,,,,,,,,,,,0,,,,,,,,0,,,,,,,,,,,,,,,,,,,,,,,,,,,,,,,,,,,,,Pelabuhan Lokal,PL
535,-7.65751425,126.8026854,Arwala/ Sutilarang,ASG,CB01050400,WGS1984,,Peta Sebaran Pelabuhan Umum skala 1:50.000.xml,0,0,Jl. Pelabuhan Wonreli Maluku 97653,,Maluku,Maluku Barat Daya,81,81.08,,,,,,,,,,,,,0,,,,,,,,0,,,,,,,,,,,,,,,,,,,,,,,,,,,,,,,,,,,,,Pelabuhan Lokal,PL
282,-2.29758902,113.908016,Kereng Bengkirai  ,KBE,CB01050400,WGS1984,,Peta Sebaran Pelabuhan Umum skala 1:50.000.xml,0,0,Jl. Matal No. 18 Kereng Bengkirai Palangkaraya Kalteng 73111,,Kalimantan Tengah,Palangkaraya  ,62,62.71,,,,,,,,,,,,,0,,,,,,,,0,,,,,,,,,,,,,,,,,,,,,,,,,,,,,,,,,,,,,Pelabuhan Lokal,PL
58,1.004511,103.3537,Parit Rempak  ,PTK,CB01050400,WGS1984,,Peta Sebaran Pelabuhan Umum skala 1:50.000.xml,0,0,-,,Kepulauan Riau,Karimun  ,21,21.02,,,,,,,,,,,,,0,,,,,,,,0,,,,,,,,,,,,,,,,,,,,,,,,,,,,,,,,,,,,,Pelabuhan Lokal,PL
104,-1.0870972,104.1928101,Nipah Panjang,NIJ,CB01050400,WGS1984,,Peta Sebaran Pelabuhan Umum skala 1:50.000.xml,Unit Penyelenggara Pelabuhan,Kantor Unit Penyelenggara Pelabuhan Kelas II Nipah Panjang,Jl. Pelabuhan No. 1 Kec. Nipah Panjang Kab. Tanjung Jabung Timur Jambi 36571,,Jambi,Tanjung Jabung Timur,15,15.07,,,,,,,,,,,,,Operasi,1,,,,,,,-,,,,,,,,,,,,,,,,,,,,,,,,,,,,,,,,,,,,,Pelabuhan Pengumpan Regional,PR
263,-1.102478,109.9620361,Teluk Melano/ Teluk Batang,TMO,CB01050400,WGS1984,,Peta Sebaran Pelabuhan Umum skala 1:50.000.xml,Unit Penyelenggara Pelabuhan,Kantor Unit Penyelenggara Pelabuhan Kelas III Teluk Melano,"Jl. Gusti Aplos No. 93 Rt.8/Rw,III Kalbar 78853",,Kalimantan Barat,Kayong Utara ,61,61.11,,,,,,,,,,,,,Operasi,1,,,,,,,-,,,,,,,,,,,,,,,,,,,,,,,,,,,,,,,,,,,,,Pelabuhan Pengumpan,PP
125,-4.1452637,105.7515869,Mesuji/ Lampung,MSJ,CB01050400,WGS1984,,Peta Sebaran Pelabuhan Umum skala 1:50.000.xml,Unit Penyelenggara Pelabuhan,Kantor Unit Penyelenggara Pelabuhan Kelas III Masuji,LAMPUNG UTARA,,Lampung,Mesuji  ,18,18.11,,,,,,,,,,,,,Operasi,1,,,,,,,-,,,,,,,,,,,,,,,,,,,,,,,,,,,,,,,,,,,,,Pelabuhan Pengumpan Regional,PR
102,-0.9545898,103.6722412,Kuala Mendahara,E,CB01050400,WGS1984,,Peta Sebaran Pelabuhan Umum skala 1:50.000.xml,Unit Penyelenggara Pelabuhan,Kantor Unit Penyelenggara Pelabuhan Kelas III Kuala Mendahara,-,,Jambi,Tanjung Jabung Timur,15,15.07,,,,,,,,,,,,,Operasi,1,,,,,,,-,,,,,,,,,,,,,,,,,,,,,,,,,,,,,,,,,,,,,Pelabuhan Pengumpan Regional,PR
56,1.016414,104.2322,Tanjung Uban/ Teluk Sasah,TAN,CB01050400,WGS1984,,Peta Sebaran Pelabuhan Umum skala 1:50.000.xml,0,0,0,,Kepulauan Riau,Bintan  ,21,21.01,,,,,,,,,,,,,0,,,,,,,,0,,,,,,,,,,,,,,,,,,,,,,,,,,,,,,,,,,,,,Pelabuhan Pengumpan Regional,PR
151,-6.1143799,106.8630371,Kepulauan Seribu,KSB,CB01050400,WGS1984,,Peta Sebaran Pelabuhan Umum skala 1:50.000.xml,Kesyahbandaraan dan Otoritas Pelabuhan,Kantor Kesyahbandaran dan Otoritas Pelabuhan Kelas V KEPULAUAN Seribu (Pulau Pramuka),jakarta,,DKI Jakarta,Adm. Kepulauan Seribu ,31,31.01,,,,,,,,,,,,,Operasi,1,,,,,,,-,,,,,,,,,,,,,,,,,,,,,,,,,,,,,,,,,,,,,Pelabuhan Pengumpan Regional,PR
574,-3.0670776,128.1791992,Hatu Piru,KRT,CB01050400,WGS1984,,Peta Sebaran Pelabuhan Umum skala 1:50.000.xml,Unit Penyelenggara Pelabuhan,Kantor Unit Penyelenggara Pelabuhan Kelas III Waisarisa,"Jl. Kompleks PT. IMJ, Waisarisa Maluku",,Maluku,Seram Bagian Barat,81,81.06,,,,,,,,,,,,,Operasi,1,,,,,,,-,,,,,,,,,,,,,,,,,,,,,,,,,,,,,,,,,,,,,Pelabuhan Pengumpan Regional,PR
383,-3.5629883,123.1328125,Menuai   ,MNI,CB01050400,WGS1984,,Peta Sebaran Pelabuhan Umum skala 1:50.000.xml,Unit Penyelenggara Pelabuhan,Kantor Unit Penyelenggara Pelabuhan Kelas III Kalonedale,Jl. Pelabuhan Niaga No. 1 Sape Bima Kab. Bima Nusa Tenggara Barat,,Sulawesi Tengah,Morowali  ,72,72.06,,,,,,,,,,,,,Operasi,1,,,,,,,-,,,,,,,,,,,,,,,,,,,,,,,,,,,,,,,,,,,,,Pelabuhan Lokal,PL
560,-4.54335,129.9225,Banda Besar ,NDA,CB01050400,WGS1984,,Peta Sebaran Pelabuhan Umum skala 1:50.000.xml,0,0,0,,Maluku,Maluku Tengah ,81,81.01,,,,,,,,,,,,,0,,,,,,,,0,,,,,,,,,,,,,,,,,,,,,,,,,,,,,,,,,,,,,Pelabuhan Lokal,PL
89,1.014561,102.7467,Meranti/ Dorak  ,MRT,CB01050400,WGS1984,,Peta Sebaran Pelabuhan Umum skala 1:50.000.xml,0,0,Jl. Pelabuhan No. 2 Selat Panjang Riau 28753,,Riau,Kepulauan Meranti ,14,14.1,,,,,,,,,,,,,0,,,,,,,,0,,,,,,,,,,,,,,,,,,,,,,,,,,,,,,,,,,,,,Pelabuhan Pengumpan Regional,PR
101,-0.8132935,103.4595947,Kuala Tungkal,KTK,CB01050400,WGS1984,,Peta Sebaran Pelabuhan Umum skala 1:50.000.xml,Kesyahbandaraan dan Otoritas Pelabuhan,Kantor Kesyahbandaran dan Otoritas Pelabuhan Kelas V Kuala Tungkal,Jl. Kesejahteraan No. 86 Rt.19 Kuala Tungkal Kab. Tanjung Jabung Barat Jambi 36513,,Jambi,Tanjung Jabung Barat,15,15.06,,,,,,,,,,,,,Operasi,1,,,,,,,-,,,,,,,,,,,,,,,,,,,,,,,,,,,,,,,,,,,,,Pelabuhan Pengumpan Regional,PR
122,-5.4869995,105.2514038,Teluk Betung ,TBG,CB01050400,WGS1984,,Peta Sebaran Pelabuhan Umum skala 1:50.000.xml,0,0,BANDAR LAMPUNG,,Lampung,Bandar Lampung ,18,18.71,,,,,,,,,,,,,0,,,,,,,,0,,,,,,,,,,,,,,,,,,,,,,,,,,,,,,,,,,,,,Pelabuhan Pengumpan Regional,PR
294,-3.328064,114.5578003,Banjarmasin   ,BDJ,CB01050400,WGS1984,,Peta Sebaran Pelabuhan Umum skala 1:50.000.xml,Kesyahbandaraan dan Otoritas Pelabuhan,Kantor Kesyahbandaran dan Otoritas Pelabuhan Kelas I Banjarmasin,Jl. Duyung Raya KomPulau Lumba-lumba No. 45 Banjarmasin Kalimantan Selatan 70119,,Kalimantan Selatan,Banjarmasin  ,63,63.71,,,,,,,,,,,,,Operasi,1,,,,,,,PT. Pelindo III (Persero) Banjarmasin,,,,,,,,,,,,,,,,,,,,,,,,,,,,,,,,,,,,,Pelabuhan Utama,PU
353,1.199111,124.5504,Amurang  ,AUG,CB01050400,WGS1984,,Peta Sebaran Pelabuhan Umum skala 1:50.000.xml,0,0,Jl. Raya Manado Likupang Sulawesi Utara 95375,, Sulawesi Utara,Minahasa Selatan ,71,71.05,,,,,,,,,,,,,0,,,,,,,,0,,,,,,,,,,,,,,,,,,,,,,,,,,,,,,,,,,,,,Pelabuhan Pengumpan Regional,PR
378,1.046,121.9526,Paleleh   ,PLH,CB01050400,WGS1984,,Peta Sebaran Pelabuhan Umum skala 1:50.000.xml,0,0,Jl. Syarif Mansyur No. 356 Kel. Leok 1 Kec. Biau Kab. Buol Sulteng 94563,,Sulawesi Tengah,Buol  ,72,72.05,,,,,,,,,,,,,0,,,,,,,,0,,,,,,,,,,,,,,,,,,,,,,,,,,,,,,,,,,,,,Pelabuhan Lokal,PL
409,-5.5021973,122.526001,Kadatua  ,KTT,CB01050400,WGS1984,,Peta Sebaran Pelabuhan Umum skala 1:50.000.xml,Unit Penyelenggara Pelabuhan,Kantor Unit Penyelenggara Pelabuhan Kelas I Bau-bau,Jl. Yos Sudarso No. 5 Kel. Wale Kec. Wolio Kota Baubau Provinsi Sultra 93711,,Sulawesi Tenggara,Buton Selatan ,74,74.15,,,,,,,,,,,,,Operasi,1,,,,,,,-,,,,,,,,,,,,,,,,,,,,,,,,,,,,,,,,,,,,,Pelabuhan Lokal,PL
571,-7.50131,131.6512,Tutu Kembong,TKM,CB01050400,WGS1984,,Peta Sebaran Pelabuhan Umum skala 1:50.000.xml,0,0,Jl.Pelabuhan Saumlaki Kec. Tanibar Selatan Kab. Saumlaki Maluku 97762,,Maluku,Kepulauan Tanimbar,81,81.03,,,,,,,,,,,,,0,,,,,,,,0,,,,,,,,,,,,,,,,,,,,,,,,,,,,,,,,,,,,,Pelabuhan Lokal,PL
615,-5.7789952,138.4787258,Atsy   ,ATY,CB01050400,WGS1984,,Peta Sebaran Pelabuhan Umum skala 1:50.000.xml,0,0,Jl. Pelabuhan Baru No. 1 Agats Kab. Asmat Papua,,Papua,Asmat  ,91,93.04,,,,,,,,,,,,,0,,,,,,,,0,,,,,,,,,,,,,,,,,,,,,,,,,,,,,,,,,,,,,Pelabuhan Lokal,PL
1,4.1271973,96.1318359,Meulaboh  ,MEQ,CB01050400,WGS1984,,Peta Sebaran Pelabuhan Umum skala 1:50.000.xml,Kesyahbandaraan dan Otoritas Pelabuhan,Kantor Kesyahbandaran dan Otoritas Pelabuhan Kelas V Meulaboh,"Jl. T. Chik Ditiro No. 17 Meulaboh, Aceh Barat NAD 23611 Telp/Fax. 0655- 7551443 Email : adpelmeulaboh@yahoo.com / ksopmeulaboh@dephub.go.id",,Aceh,Aceh Barat ,11,11.05,,,,,,,,,,,,,Operasi,1,,,,,,,PT. Pelindo I (Persero) Meulaboh,,,,,,,,,,,,,,,,,,,,,,,,,,,,,,,,,,,,,Pelabuhan Pengumpan,PP
2,3.720398,96.8102417,Susoh ,SUS,CB01050400,WGS1984,,Peta Sebaran Pelabuhan Umum skala 1:50.000.xml,Unit Penyelenggara Pelabuhan,Kantor Unit Penyelenggara Pelabuhan Kelas III Susoh,"Jl. Datuk Digaduang No.167 Susoh, Nanggroe Aceh Darussalam 23765",,Aceh,Aceh Barat Daya,11,11.12,,,,,,,,,,,,,Operasi,1,,,,,,,-,,,,,,,,,,,,,,,,,,,,,,,,,,,,,,,,,,,,,Pelabuhan Pengumpan Regional,PR
3,4.6426392,95.5831909,Calang  ,CLG,CB01050400,WGS1984,,Peta Sebaran Pelabuhan Umum skala 1:50.000.xml,Unit Penyelenggara Pelabuhan,Kantor Unit Penyelenggara Pelabuhan Kelas III Calang,"Jl. Pelabuhan No. 9 Calang Kab Aceh Java Nanggroe Aceh Darussalam 23654 Telp.0654-2210219, Fax. 0654-7000890 Email : upp.calang@gmail.com / uppcalang@dephub.go.id",,Aceh,Aceh Jaya ,11,11.14,,,,,,,,,,,,,Operasi,1,,,,,,,-,,,,,,,,,,,,,,,,,,,,,,,,,,,,,,,,,,,,,Pelabuhan Pengumpan,PP
4,3.2540283,97.1793823,Tapaktuan  ,TPK,CB01050400,WGS1984,,Peta Sebaran Pelabuhan Umum skala 1:50.000.xml,Unit Penyelenggara Pelabuhan,Kantor Unit Penyelenggara Pelabuhan Kelas III Tapak Tuan,ACEH SELATAN,,Aceh,Aceh Selatan ,11,11.01,,,,,,,,,,,,,Operasi,1,,,,,,,-,,,,,,,,,,,,,,,,,,,,,,,,,,,,,,,,,,,,,Pelabuhan Pengumpan Regional,PR
5,2.8931885,95.5206299,Sibadeh  ,SBD,CB01050400,WGS1984,,Peta Sebaran Pelabuhan Umum skala 1:50.000.xml,Unit Penyelenggara Pelabuhan,Kantor Unit Penyelenggara Pelabuhan Kelas III Tapak Tuan,ACEH SELATAN,,Aceh,Aceh Selatan ,11,11.01,,,,,,,,,,,,,Operasi,1,,,,,,,-,,,,,,,,,,,,,,,,,,,,,,,,,,,,,,,,,,,,,Pelabuhan Lokal,PL
6,2.2684326,97.8126221,Singkil  ,SNL,CB01050400,WGS1984,,Peta Sebaran Pelabuhan Umum skala 1:50.000.xml,Unit Penyelenggara Pelabuhan,Kantor Unit Penyelenggara Pelabuhan Kelas III Singkil,"Jl. Utama No. 20 Pulo Sarok Singkil, Kab. Aceh Singkil 24785",,Aceh,Aceh Singkil ,11,11.1,,,,,,,,,,,,,Operasi,1,,,,,,,-,,,,,,,,,,,,,,,,,,,,,,,,,,,,,,,,,,,,,Pelabuhan Pengumpan,PP
7,2.2954102,97.4075928,Pulau Banyak,BYK,CB01050400,WGS1984,,Peta Sebaran Pelabuhan Umum skala 1:50.000.xml,Unit Penyelenggara Pelabuhan,Kantor Unit Penyelenggara Pelabuhan Kelas III Singkil,"Jl. Utama No. 20 Pulo Sarok Singkil, Kab. Aceh Singkil 24785",,Aceh,Aceh Singkil ,11,11.1,,,,,,,,,,,,,Operasi,1,,,,,,,-,,,,,,,,,,,,,,,,,,,,,,,,,,,,,,,,,,,,,Pelabuhan Lokal,PL
8,4.9592285,97.7734375,Idi  ,III,CB01050400,WGS1984,,Peta Sebaran Pelabuhan Umum skala 1:50.000.xml,Unit Penyelenggara Pelabuhan,Kantor Unit Penyelenggara Pelabuhan Kelas III Idi,Jl.Petua Husen KomPulau Pelabuhan No.1 Kec Idie Rayeuk Kab Aceh Timur 24454,,Aceh,Aceh Timur ,11,11.03,,,,,,,,,,,,,Operasi,1,,,,,,,-,,,,,,,,,,,,,,,,,,,,,,,,,,,,,,,,,,,,,Pelabuhan Lokal,PL
9,5.2407837,97.0394287,Lhokseumawe/Kreung Geukeh ,LSW,CB01050400,WGS1984,,Peta Sebaran Pelabuhan Umum skala 1:50.000.xml,Kesyahbandaraan dan Otoritas Pelabuhan,Kantor Kesyahbandaran dan Otoritas Pelabuhan Kelas III Lhokseumawe,Jl. Pelabuhan No. 1 Lhoksumawe 24315 Telp/Fax. 0645-43485 Email : adpel_lsm3@yahoo.co.id / ksoplhokseumawe@dephub.go.id,,Aceh,Aceh Utara ,11,11.08,,,,,,,,,,,,,Operasi,1,,,,,,,PT. Pelindo I (Persero) Lhokseumawe,,,,,,,,,,,,,,,,,,,,,,,,,,,,,,,,,,,,,Pelabuhan Pengumpan,PP
10,5.5952148,95.5264282,Malahayati  ,MLH,CB01050400,WGS1984,,Peta Sebaran Pelabuhan Umum skala 1:50.000.xml,Kesyahbandaraan dan Otoritas Pelabuhan,Kantor Kesyahbandaran dan Otoritas Pelabuhan Kelas IV Malahayati,"Jl. Patimura No. 89 Kel. Sukaramai Blower, Banda Aceh Telp/Fax. 0651-48555 Email : adpelmalahayati@yahoo.com / ksopmalahayati@dephub.go.id",,Aceh,Banda Aceh ,11,11.71,,,,,,,,,,,,,Operasi,1,,,,,,,PT. Pelindo I (Persero) Malahayati,,,,,,,,,,,,,,,,,,,,,,,,,,,,,,,,,,,,,Pelabuhan Pengumpan,PP
11,4.5223999,98.0184326,Kuala Langsa  ,KUA,CB01050400,WGS1984,,Peta Sebaran Pelabuhan Umum skala 1:50.000.xml,Kesyahbandaraan dan Otoritas Pelabuhan,Kantor Kesyahbandaran dan Otoritas Pelabuhan Kelas V Kuala Langsa,"Jl. Pelabuhan No. 04 Kuala Langsa NAD 24451 TelPulau 0641-23459, Fax. 0641-21663 Email : ad_klgs@yahoo.com / ksopkualalangsa@dephub.go.id",,Aceh,Langsa  ,11,11.74,,,,,,,,,,,,,Operasi,1,,,,,,,PT. Pelindo I (Persero) Lhokseumawe,,,,,,,,,,,,,,,,,,,,,,,,,,,,,,,,,,,,,Pelabuhan Pengumpan,PP
12,5.384361,95.9636,Sigli   ,SII,CB01050400,WGS1984,,Peta Sebaran Pelabuhan Umum skala 1:50.000.xml,0,0,"Jl. Patimura No. 89 Kel. Sukaramai Blower, Banda Aceh Telp/Fax. 0651-48555 Email : adpelmalahayati@yahoo.com / ksopmalahayati@dephub.go.id",,Aceh,Pidie  ,11,11.07,,,,,,,,,,,,,0,,,,,,,,0,,,,,,,,,,,,,,,,,,,,,,,,,,,,,,,,,,,,,Pelabuhan Lokal,PL
13,5.8895874,95.3179932,Sabang   ,SBG,CB01050400,WGS1984,,Peta Sebaran Pelabuhan Umum skala 1:50.000.xml,Kesyahbandaraan dan Otoritas Pelabuhan,Kantor Kesyahbandaran dan Otoritas Pelabuhan Kelas V Sabang,"Jl. Malahayati No. 82 Sabang NAD 23512 TelPulau 0652-21016, Fax. 0652-21017 Email : adpelsabang@yahoo.co.id / ksopsabang@dephub.go.id",,Aceh,Sabang  ,11,11.72,,,,,,,,,,,,,Operasi,1,,,,,,,PT. Pelindo I (Persero) Sabang,,,,,,,,,,,,,,,,,,,,,,,,,,,,,,,,,,,,,Pelabuhan Utama,PU
14,2.4786377,96.3826294,Sinabang   ,SNG,CB01050400,WGS1984,,Peta Sebaran Pelabuhan Umum skala 1:50.000.xml,Unit Penyelenggara Pelabuhan,Kantor Unit Penyelenggara Pelabuhan Kelas III Sinabang,Jl. Naional No. 212 Sinabang NAD 23691,,Aceh,Simeulue  ,11,11.09,,,,,,,,,,,,,Operasi,1,,,,,,,-,,,,,,,,,,,,,,,,,,,,,,,,,,,,,,,,,,,,,Pelabuhan Pengumpan Regional,PR
15,2.8395733,95.9119322,Sibigo   ,SBO,CB01050400,WGS1984,,Peta Sebaran Pelabuhan Umum skala 1:50.000.xml,0,0,Jl. Naional No. 212 Sinabang NAD 23691,,Aceh,Simeulue  ,11,11.09,,,,,,,,,,,,,0,,,,,,,,0,,,,,,,,,,,,,,,,,,,,,,,,,,,,,,,,,,,,,Pelabuhan Lokal,PL
16,2.9993897,99.81604,Tanjung Balai Asahan/ Teluk Nibung,TSH,CB01050400,WGS1984,,Peta Sebaran Pelabuhan Umum skala 1:50.000.xml,Kesyahbandaraan dan Otoritas Pelabuhan,Kantor Kesyahbandaran dan Otoritas Pelabuhan Kelas V Tanjung Balai Asahan,Jl. Pelabuhan Teluk Nibung 21351,,Sumatera Utara,Asahan  ,12,12.09,,,,,,,,,,,,,Operasi,1,,,,,,,PT. Pelindo I (Persero) Tanjung Balai Asahan,,,,,,,,,,,,,,,,,,,,,,,,,,,,,,,,,,,,,Pelabuhan Pengumpan,PP
17,3.021317,99.85891,Bagan Asahan  ,IBX,CB01050400,WGS1984,,Peta Sebaran Pelabuhan Umum skala 1:50.000.xml,0,0,Jl. Pelabuhan Teluk Nibung 21351,,Sumatera Utara,Asahan  ,12,12.09,,,,,,,,,,,,,0,,,,,,,,0,,,,,,,,,,,,,,,,,,,,,,,,,,,,,,,,,,,,,Pelabuhan Pengumpan Regional,PR
18,3.3728027,99.4692383,Kuala Tanjung  ,KTJ,CB01050400,WGS1984,,Peta Sebaran Pelabuhan Umum skala 1:50.000.xml,Kesyahbandaraan dan Otoritas Pelabuhan,Kantor Kesyahbandaran dan Otoritas Pelabuhan Kelas V Kuala Tanjung,Jl. Pelabuhan Kuala Tanjung Kec. Sei Suka Kab. Batu Bara Sumatera Utara 21257,,Sumatera Utara,Batu bara  ,12,12.19,,,,,,,,,,,,,Operasi,1,,,,,,,PT. Pelindo I (Persero) Kuala Tanjung,,,,,,,,,,,,,,,,,,,,,,,,,,,,,,,,,,,,,Pelabuhan Utama,PU
19,3.4104004,99.3186035,Pangkalan Dodek  ,PDD,CB01050400,WGS1984,,Peta Sebaran Pelabuhan Umum skala 1:50.000.xml,Unit Penyelenggara Pelabuhan,Kantor Unit Penyelenggara Pelabuhan Kelas III Pangkalan Dodek,"Jl. Pelabuhan Desa Nenas Siau Batubara, Suamtera Utara 21258 Telp/Fax. 0622-5892962, 5892970 Email : kanpelpangkalandodek@yahoo.co.id / upppangkalandodek@dephub.go.id",,Sumatera Utara,Batu bara  ,12,12.19,,,,,,,,,,,,,Operasi,1,,,,,,,-,,,,,,,,,,,,,,,,,,,,,,,,,,,,,,,,,,,,,Pelabuhan Lokal,PL
20,4.0532227,98.3800049,Tanjung Tiram  ,RAM,CB01050400,WGS1984,,Peta Sebaran Pelabuhan Umum skala 1:50.000.xml,Unit Penyelenggara Pelabuhan,Kantor Unit Penyelenggara Pelabuhan Kelas III Tanjung Tiram,ASAHAN,,Sumatera Utara,Batu bara  ,12,12.19,,,,,,,,,,,,,Operasi,1,,,,,,,-,,,,,,,,,,,,,,,,,,,,,,,,,,,,,,,,,,,,,Pelabuhan Pengumpan Regional,PR
21,1.305603,97.6098023,Gunung Sitoli ,GNS,CB01050400,WGS1984,,Peta Sebaran Pelabuhan Umum skala 1:50.000.xml,Kesyahbandaraan dan Otoritas Pelabuhan,Kantor Kesyahbandaran dan Otoritas Pelabuhan Kelas V Gunung Sitoli,Jl. Yos Sudarso No. 194 Km. 2 Pelabuhan Angin Gunung Sitoli Sumatera Utara 22812,,Sumatera Utara,GunungSitoli ,12,12.78,,,,,,,,,,,,,Operasi,1,,,,,,,PT. Pelindo I (Persero) Gunung Sitoli,,,,,,,,,,,,,,,,,,,,,,,,,,,,,,,,,,,,,Pelabuhan Pengumpan,PP
22,2.6149902,100.1212158,Sei Berombang ,SBE,CB01050400,WGS1984,,Peta Sebaran Pelabuhan Umum skala 1:50.000.xml,Unit Penyelenggara Pelabuhan,Kantor Unit Penyelenggara Pelabuhan Kelas III Sei Berombong,Jl. Syahbandar No. 86 Sei Barombong Sumatera Utara 21473,,Sumatera Utara,Labuhanbatu ,12,12.1,,,,,,,,,,,,,Operasi,1,,,,,,,-,,,,,,,,,,,,,,,,,,,,,,,,,,,,,,,,,,,,,Pelabuhan Pengumpan Regional,PR
23,2.5014038,100.1650391,Tanjung Sarang Elang,TSL,CB01050400,WGS1984,,Peta Sebaran Pelabuhan Umum skala 1:50.000.xml,Unit Penyelenggara Pelabuhan,Kantor Unit Penyelenggara Pelabuhan Kelas III Tanjung Sarang Elang,LABUHAN BATU,,Sumatera Utara,Labuhanbatu ,12,12.1,,,,,,,,,,,,,Operasi,1,,,,,,,-,,,,,,,,,,,,,,,,,,,,,,,,,,,,,,,,,,,,,Pelabuhan Pengumpan Regional,PR
24,2.7556152,99.9805908,Teluk Leidong,LIG,CB01050400,WGS1984,,Peta Sebaran Pelabuhan Umum skala 1:50.000.xml,Unit Penyelenggara Pelabuhan,Kantor Unit Penyelenggara Pelabuhan Kelas III Leidong,"Jl. Bondar No. 79 Liendong Sumatera Utara 21475 TelPulau 0623-71071, Fax. 0623-71371 Email : upplaeidong@gmail.com / uppleidong@dephub.go.id",,Sumatera Utara,Labuhanbatu Utara,12,12.23,,,,,,,,,,,,,Operasi,1,,,,,,,-,,,,,,,,,,,,,,,,,,,,,,,,,,,,,,,,,,,,,Pelabuhan Pengumpan,PP
25,4.1202393,98.2139893,Pangkalan Susu  ,PKS,CB01050400,WGS1984,,Peta Sebaran Pelabuhan Umum skala 1:50.000.xml,Kesyahbandaraan dan Otoritas Pelabuhan,Kantor Kesyahbandaran dan Otoritas Pelabuhan Kelas IV Pangkalan Susu,Jl. Pelabuhan No. 05 Pangkalan Susu Langkat Sumatera Utara 20858,,Sumatera Utara,Langkat  ,12,12.05,,,,,,,,,,,,,Operasi,1,,,,,,,PT. Pelindo I (Persero) Belawan,,,,,,,,,,,,,,,,,,,,,,,,,,,,,,,,,,,,,Pelabuhan Pengumpan,PP
26,4.0267944,98.2817993,Pangkalan Brandan  ,PKR,CB01050400,WGS1984,,Peta Sebaran Pelabuhan Umum skala 1:50.000.xml,Kesyahbandaraan dan Otoritas Pelabuhan,Kantor Kesyahbandaran dan Otoritas Pelabuhan Kelas IV Pangkalan Susu,Jl. Pelabuhan No. 05 Pangkalan Susu Langkat Sumatera Utara 20858,,Sumatera Utara,Langkat  ,12,12.05,,,,,,,,,,,,,Operasi,1,,,,,,,PT. Pelindo I (Persero) Belawan,,,,,,,,,,,,,,,,,,,,,,,,,,,,,,,,,,,,,Pelabuhan Pengumpan,PP
27,4.1875274,98.2435493,Pulau Kampai  ,PKA,CB01050400,WGS1984,,Peta Sebaran Pelabuhan Umum skala 1:50.000.xml,Unit Penyelenggara Pelabuhan,Kantor Unit Penyelenggara Pelabuhan Kelas III Pulau Kampai,LANGKAT - SUMATERA UTARA,,Sumatera Utara,Langkat  ,12,12.05,,,,,,,,,,,,,Operasi,1,,,,,,,-,,,,,,,,,,,,,,,,,,,,,,,,,,,,,,,,,,,,,Pelabuhan Lokal,PL
28,3.8984375,98.4199829,Tanjung Pura,TPU,CB01050400,WGS1984,,Peta Sebaran Pelabuhan Umum skala 1:50.000.xml,Unit Penyelenggara Pelabuhan,Kantor Unit Penyelenggara Pelabuhan Kelas III Tanjung Pura,-,,Sumatera Utara,Langkat  ,12,12.05,,,,,,,,,,,,,Operasi,1,,,,,,,-,,,,,,,,,,,,,,,,,,,,,,,,,,,,,,,,,,,,,Pelabuhan Pengumpan Regional,PR
29,0.6328125,99.0704346,Natal/ Sikara-kara,INL,CB01050400,WGS1984,,Peta Sebaran Pelabuhan Umum skala 1:50.000.xml,0,0,Mandailing Natal-Sumatera Utara,,Sumatera Utara,Mandailing Natal ,12,12.13,,,,,,,,,,,,,0,,,,,,,,0,,,,,,,,,,,,,,,,,,,,,,,,,,,,,,,,,,,,,Pelabuhan Pengumpan Regional,PR
30,0.629692,99.06976,Parlimbungan Ketek ,TEK,CB01050400,WGS1984,,Peta Sebaran Pelabuhan Umum skala 1:50.000.xml,0,0,Mandailing Natal-Sumatera Utara,,Sumatera Utara,Mandailing Natal ,12,12.13,,,,,,,,,,,,,0,,,,,,,,0,,,,,,,,,,,,,,,,,,,,,,,,,,,,,,,,,,,,,Pelabuhan Pengumpan,PP
31,3.7842407,98.7153931,Belawan   ,BLW,CB01050400,WGS1984,,Peta Sebaran Pelabuhan Umum skala 1:50.000.xml,Kesyahbandaraan dan Otoritas Pelabuhan,Kantor Kesyahbandaran Utama Belawan,"JL. Suar No. 1 Pelabuhan Belawan Medan, Sumut - 20411",,Sumatera Utara,Medan  ,12,12.71,,,,,,,,,,,,,Operasi,1,,,,,,,PT. Pelindo I (Persero) Belawan,,,,,,,,,,,,,,,,,,,,,,,,,,,,,,,,,,,,,Pelabuhan Utama,PU
32,0.9423828,97.4122315,Sirombu  ,SRU,CB01050400,WGS1984,,Peta Sebaran Pelabuhan Umum skala 1:50.000.xml,Unit Penyelenggara Pelabuhan,Kantor Unit Penyelenggara Pelabuhan Kelas III Sirombu,SIROMBU - NIAS BARAT,,Sumatera Utara,Nias Barat ,12,12.25,,,,,,,,,,,,,Operasi,1,,,,,,,-,,,,,,,,,,,,,,,,,,,,,,,,,,,,,,,,,,,,,Pelabuhan Pengumpan Regional,PR
33,-0.0499878,98.2850342,Pulau Tello ,PTE,CB01050400,WGS1984,,Peta Sebaran Pelabuhan Umum skala 1:50.000.xml,Unit Penyelenggara Pelabuhan,Kantor Unit Penyelenggara Pelabuhan Kelas III Pulau Tello,PULAU TELLO - NIAS SELATAN,,Sumatera Utara,Nias Selatan ,12,12.14,,,,,,,,,,,,,Operasi,1,,,,,,,-,,,,,,,,,,,,,,,,,,,,,,,,,,,,,,,,,,,,,Pelabuhan Pengumpan,PP
34,0.5656128,97.8208008,Teluk Dalam ,TDA,CB01050400,WGS1984,,Peta Sebaran Pelabuhan Umum skala 1:50.000.xml,Unit Penyelenggara Pelabuhan,Kantor Unit Penyelenggara Pelabuhan Kelas III Teluk Dalam,NIAS SELATAN,,Sumatera Utara,Nias Selatan ,12,12.14,,,,,,,,,,,,,Operasi,1,,,,,,,-,,,,,,,,,,,,,,,,,,,,,,,,,,,,,,,,,,,,,Pelabuhan Pengumpan Regional,PR
35,1.395813,97.1708374,Lahewa  ,LHA,CB01050400,WGS1984,,Peta Sebaran Pelabuhan Umum skala 1:50.000.xml,Unit Penyelenggara Pelabuhan,Kantor Unit Penyelenggara Pelabuhan Kelas III Lahewa,"Jl. Bowo No. 1 Kel. Pasar Lahewa Kab. Nias Utara, Suamtera Utara 22853",,Sumatera Utara,Nias Utara ,12,12.24,,,,,,,,,,,,,Operasi,1,,,,,,,-,,,,,,,,,,,,,,,,,,,,,,,,,,,,,,,,,,,,,Pelabuhan Pengumpan Regional,PR
36,3.4970093,99.1928101,Tanjung Beringin ,TBE,CB01050400,WGS1984,,Peta Sebaran Pelabuhan Umum skala 1:50.000.xml,Unit Penyelenggara Pelabuhan,Kantor Unit Penyelenggara Pelabuhan Kelas III Tanjung Beringin,ASAHAN,,Sumatera Utara,Serdang Bedagai ,12,12.18,,,,,,,,,,,,,Operasi,1,,,,,,,-,,,,,,,,,,,,,,,,,,,,,,,,,,,,,,,,,,,,,Pelabuhan Pengumpan Regional,PR
37,3.6486206,98.9862061,Pantai Cermin ,PCE,CB01050400,WGS1984,,Peta Sebaran Pelabuhan Umum skala 1:50.000.xml,Unit Penyelenggara Pelabuhan,Kantor Unit Penyelenggara Pelabuhan Kelas III Pantai Cermin,Jl. HT Rizal Nudin No.465 Pantai Cermin 20987 Telp/Fax 061-7970102 Email : upppantaicermin@dephub.go.id,,Sumatera Utara,Serdang Bedagai ,12,12.18,,,,,,,,,,,,,Operasi,1,,,,,,,-,,,,,,,,,,,,,,,,,,,,,,,,,,,,,,,,,,,,,Pelabuhan Pengumpan Regional,PR
38,1.7280273,98.786438,Sibolga   ,SLG,CB01050400,WGS1984,,Peta Sebaran Pelabuhan Umum skala 1:50.000.xml,Kesyahbandaraan dan Otoritas Pelabuhan,Kantor Kesyahbandaran dan Otoritas Pelabuhan Kelas V Sibolga,"Jl. Horas Pelabuhan Sibolga, Sibolga Sumatera Utara 22532",,Sumatera Utara,Sibolga  ,12,12.73,,,,,,,,,,,,,Operasi,1,,,,,,,PT. Pelindo I (Persero) Sibolga,,,,,,,,,,,,,,,,,,,,,,,,,,,,,,,,,,,,,Pelabuhan Pengumpan,PP
39,2.0063702,98.398218,Barus  ,BRS,CB01050400,WGS1984,,Peta Sebaran Pelabuhan Umum skala 1:50.000.xml,Unit Penyelenggara Pelabuhan,Kantor Unit Penyelenggara Pelabuhan Kelas III Barus,"Jl. Yos Sudarso No. 02 Kel. Pasar Batu Grigis Barus, Kab. Tapanuli Tengah Sumatera Utara 22564",,Sumatera Utara,Tapanuli Tengah ,12,12.01,,,,,,,,,,,,,Operasi,1,,,,,,,-,,,,,,,,,,,,,,,,,,,,,,,,,,,,,,,,,,,,,Pelabuhan Lokal,PL
40,1.7526245,98.7333984,Oswald Siahaan/Labuhan Angin,ONN,CB01050400,WGS1984,,Peta Sebaran Pelabuhan Umum skala 1:50.000.xml,0,0,"Jl. Yos Sudarso No. 02 Kel. Pasar Batu Grigis Barus, Kab. Tapanuli Tengah Sumatera Utara 22564",,Sumatera Utara,Tapanuli Tengah ,12,12.01,,,,,,,,,,,,,0,,,,,,,,0,,,,,,,,,,,,,,,,,,,,,,,,,,,,,,,,,,,,,Pelabuhan Pengumpan Regional,PR
41,-1.5980835,99.2150269,Muara Siberut/Simailepet ,IME,CB01050400,WGS1984,,Peta Sebaran Pelabuhan Umum skala 1:50.000.xml,Unit Penyelenggara Pelabuhan,Kantor Unit Penyelenggara Pelabuhan Kelas III Muara Siberut,Kepulauan Mentawai-Sumatera Barat,,Sumatera Barat,Kepulauan Mentawai ,13,13.09,,,,,,,,,,,,,Operasi,1,,,,,,,-,,,,,,,,,,,,,,,,,,,,,,,,,,,,,,,,,,,,,Pelabuhan Pengumpan Regional,PR
42,-2.7769165,100.2150269,Sikakap  ,SIK,CB01050400,WGS1984,,Peta Sebaran Pelabuhan Umum skala 1:50.000.xml,Unit Penyelenggara Pelabuhan,Kantor Unit Penyelenggara Pelabuhan Kelas III Sikakap,MENTAWAI,,Sumatera Barat,Kepulauan Mentawai ,13,13.09,,,,,,,,,,,,,Operasi,1,,,,,,,-,,,,,,,,,,,,,,,,,,,,,,,,,,,,,,,,,,,,,Pelabuhan Pengumpan,PP
44,-1.1165772,99.0014038,Sikabaluan/ Pokai ,SKB,CB01050400,WGS1984,,Peta Sebaran Pelabuhan Umum skala 1:50.000.xml,Unit Penyelenggara Pelabuhan,Kantor Unit Penyelenggara Pelabuhan Kelas III Siuban,Kepulauan Mentawai-Sumatera Barat,,Sumatera Barat,Kepulauan Mentawai ,13,13.09,,,,,,,,,,,,,Operasi,1,,,,,,,-,,,,,,,,,,,,,,,,,,,,,,,,,,,,,,,,,,,,,Pelabuhan Lokal,PL
45,-2.0302734,99.5925903,Tua Pejat ,TPT,CB01050400,WGS1984,,Peta Sebaran Pelabuhan Umum skala 1:50.000.xml,Unit Penyelenggara Pelabuhan,Kantor Unit Penyelenggara Pelabuhan Kelas III Siuban,MENTAWAI,,Sumatera Barat,Kepulauan Mentawai ,13,13.09,,,,,,,,,,,,,Operasi,1,,,,,,,-,,,,,,,,,,,,,,,,,,,,,,,,,,,,,,,,,,,,,Pelabuhan Pengumpan Regional,PR
46,-2.5397949,100.0360107,Pasapuat  ,APU,CB01050400,WGS1984,,Peta Sebaran Pelabuhan Umum skala 1:50.000.xml,Unit Penyelenggara Pelabuhan,Kantor Unit Penyelenggara Pelabuhan Kelas III Sikakap,MENTAWAI,,Sumatera Barat,Kepulauan Mentawai ,13,13.09,,,,,,,,,,,,,Operasi,1,,,,,,,-,,,,,,,,,,,,,,,,,,,,,,,,,,,,,,,,,,,,,Pelabuhan Lokal,PL
47,-0.9971924,100.3712158,Teluk Bayur  ,TBY,CB01050400,WGS1984,,Peta Sebaran Pelabuhan Umum skala 1:50.000.xml,Kesyahbandaraan dan Otoritas Pelabuhan,Kantor Kesyahbandaran dan Otoritas Pelabuhan Kelas II Teluk Bayur,Jl. Tanjung Priok No. 4 Teluk Bayur Sumatera Barat 25217,,Sumatera Barat,Padang  ,13,13.71,,,,,,,,,,,,,Operasi,1,,,,,,,PT. Pelindo II (Persero) Teluk Bayur,,,,,,,,,,,,,,,,,,,,,,,,,,,,,,,,,,,,,Pelabuhan Utama,PU
72,3.796594,108.0385,Sedanau   ,SDU,CB01050400,WGS1984,,Peta Sebaran Pelabuhan Umum skala 1:50.000.xml,0,0,PASIR PANJANG - KEPULAUAN RIAU,,Kepulauan Riau,Natuna  ,21,21.03,,,,,,,,,,,,,0,,,,,,,,0,,,,,,,,,,,,,,,,,,,,,,,,,,,,,,,,,,,,,Pelabuhan Lokal,PL
48,-0.9656982,100.3527832,Muara Padang  ,MPG,CB01050400,WGS1984,,Peta Sebaran Pelabuhan Umum skala 1:50.000.xml,Kesyahbandaraan dan Otoritas Pelabuhan,Kantor Kesyahbandaran dan Otoritas Pelabuhan Kelas II Teluk Bayur,Jl. Tanjung Priok No. 4 Teluk Bayur Sumatera Barat 25217,,Sumatera Barat,Padang  ,13,13.71,,,,,,,,,,,,,Operasi,1,,,,,,,-,,,,,,,,,,,,,,,,,,,,,,,,,,,,,,,,,,,,,Pelabuhan Pengumpan Regional,PR
49,0.2101164,99.2635567,Teluk Tapang ,TFG,CB01050400,WGS1984,,Peta Sebaran Pelabuhan Umum skala 1:50.000.xml,0,0,Jl. Tanjung Priok No. 4 Teluk Bayur Sumatera Barat 25217,,Sumatera Barat,Pasaman Barat ,13,13.12,,,,,,,,,,,,,0,,,,,,,,0,,,,,,,,,,,,,,,,,,,,,,,,,,,,,,,,,,,,,Pelabuhan Pengumpan,PP
50,0.1992188,99.380188,Air Bangis ,ABS,CB01050400,WGS1984,,Peta Sebaran Pelabuhan Umum skala 1:50.000.xml,Kesyahbandaraan dan Otoritas Pelabuhan,Kantor Kesyahbandaran dan Otoritas Pelabuhan Kelas II Teluk Bayur,Jl. Tanjung Priok No. 4 Teluk Bayur Sumatera Barat 25217,,Sumatera Barat,Pasaman Barat ,13,13.12,,,,,,,,,,,,,Operasi,1,,,,,,,PT. Pelindo II (Persero) Teluk Bayur,,,,,,,,,,,,,,,,,,,,,,,,,,,,,,,,,,,,,Pelabuhan Lokal,PL
51,-1.366272,100.5664063,Carocok Painan ,CON,CB01050400,WGS1984,,Peta Sebaran Pelabuhan Umum skala 1:50.000.xml,Kesyahbandaraan dan Otoritas Pelabuhan,Kantor Kesyahbandaran dan Otoritas Pelabuhan Kelas II Teluk Bayur,Jl. Tanjung Priok No. 4 Teluk Bayur Sumatera Barat 25217,,Sumatera Barat,Pesisir Selatan ,13,13.01,,,,,,,,,,,,,Operasi,1,,,,,,,PT. Pelindo II (Persero) Teluk Bayur,,,,,,,,,,,,,,,,,,,,,,,,,,,,,,,,,,,,,Pelabuhan Pengumpan,PP
52,1.1646118,103.9998169,Batam/ Batu Ampar ,BUR,CB01050400,WGS1984,,Peta Sebaran Pelabuhan Umum skala 1:50.000.xml,KSOP Khusus,-,Batam,,Kepulauan Riau,Batam  ,21,21.71,,,,,,,,,,,,,Operasi,1,,,,,,,-,,,,,,,,,,,,,,,,,,,,,,,,,,,,,,,,,,,,,Pelabuhan Utama,PU
53,1.155869,103.9008,Pulau Sambu  ,SMU,CB01050400,WGS1984,,Peta Sebaran Pelabuhan Umum skala 1:50.000.xml,0,0,-,,Kepulauan Riau,Batam  ,21,21.71,,,,,,,,,,,,,0,,,,,,,,0,,,,,,,,,,,,,,,,,,,,,,,,,,,,,,,,,,,,,Pelabuhan Pengumpan,PP
54,0.86045,104.6114,Sei Kolak Kijang ,SKJ,CB01050400,WGS1984,,Peta Sebaran Pelabuhan Umum skala 1:50.000.xml,0,0,"Jl. Pelabuhan Sri Bayintan No. 9 Kijang - Kepri 29151 TelPulau 0771-463765, Fax. 0771-61561 ksopkijang@dephub.go.id",,Kepulauan Riau,Bintan  ,21,21.01,,,,,,,,,,,,,0,,,,,,,,0,,,,,,,,,,,,,,,,,,,,,,,,,,,,,,,,,,,,,Pelabuhan Pengumpan,PP
55,1.203069,104.5473,Tanjung Berakit  ,TRQ,CB01050400,WGS1984,,Peta Sebaran Pelabuhan Umum skala 1:50.000.xml,0,0,KOTA TANJUNG PINANG,,Kepulauan Riau,Bintan  ,21,21.01,,,,,,,,,,,,,0,,,,,,,,0,,,,,,,,,,,,,,,,,,,,,,,,,,,,,,,,,,,,,Pelabuhan Pengumpan,PP
57,1.110786,103.3793,Malarko   ,MLO,CB01050400,WGS1984,,Peta Sebaran Pelabuhan Umum skala 1:50.000.xml,0,0,-,,Kepulauan Riau,Karimun  ,21,21.02,,,,,,,,,,,,,0,,,,,,,,0,,,,,,,,,,,,,,,,,,,,,,,,,,,,,,,,,,,,,Pelabuhan Pengumpan,PP
59,0.988431,103.4364,Tanjung Balai Karimun ,TJB,CB01050400,WGS1984,,Peta Sebaran Pelabuhan Umum skala 1:50.000.xml,0,0,-,,Kepulauan Riau,Karimun  ,21,21.02,,,,,,,,,,,,,0,,,,,,,,0,,,,,,,,,,,,,,,,,,,,,,,,,,,,,,,,,,,,,Pelabuhan Pengumpan,PP
60,0.655683,103.4676,Tanjung Batu Kundur ,TBD,CB01050400,WGS1984,,Peta Sebaran Pelabuhan Umum skala 1:50.000.xml,0,0,"Jl. Pemuda No. 21 Tanjung Batu Kota Kec. Kundur, Kab. Karimun Kepulauan Riau 29662 TelPulau 0779-21020, Fax. 0779-21001 upptanjungbatukundur@dephub.go.id",,Kepulauan Riau,Karimun  ,21,21.02,,,,,,,,,,,,,0,,,,,,,,0,,,,,,,,,,,,,,,,,,,,,,,,,,,,,,,,,,,,,Pelabuhan Pengumpan,PP
61,3.225192,99.58316,Tanjung Tiram/ karimun,ITF,CB01050400,WGS1984,,Peta Sebaran Pelabuhan Umum skala 1:50.000.xml,0,0,-,,Kepulauan Riau,Karimun  ,21,21.02,,,,,,,,,,,,,0,,,,,,,,0,,,,,,,,,,,,,,,,,,,,,,,,,,,,,,,,,,,,,Pelabuhan Pengumpan Regional,PR
62,3.2175903,106.2175903,Tarempa  ,TMP,CB01050400,WGS1984,,Peta Sebaran Pelabuhan Umum skala 1:50.000.xml,Unit Penyelenggara Pelabuhan,Kantor Unit Penyelenggara Pelabuhan Kelas III Tarempa,PASIR PANJANG - KEPULAUAN RIAU,,Kepulauan Riau,Kepulauan Anambas ,21,21.05,,,,,,,,,,,,,Operasi,1,,,,,,,-,,,,,,,,,,,,,,,,,,,,,,,,,,,,,,,,,,,,,Pelabuhan Pengumpan,PP
63,2.988956,105.697,Letung  ,LTG,CB01050400,WGS1984,,Peta Sebaran Pelabuhan Umum skala 1:50.000.xml,0,0,PASIR PANJANG - KEPULAUAN RIAU,,Kepulauan Riau,Kepulauan Anambas ,21,21.05,,,,,,,,,,,,,0,,,,,,,,0,,,,,,,,,,,,,,,,,,,,,,,,,,,,,,,,,,,,,Pelabuhan Pengumpan Regional,PR
64,-0.50217,104.5667,Dabo Singkep  ,DAS,CB01050400,WGS1984,,Peta Sebaran Pelabuhan Umum skala 1:50.000.xml,0,0,DABO SINGKEP - KEPULAUAN RIAU,,Kepulauan Riau,Lingga  ,21,21.04,,,,,,,,,,,,,0,,,,,,,,0,,,,,,,,,,,,,,,,,,,,,,,,,,,,,,,,,,,,,Pelabuhan Pengumpan,PP
65,-0.07555,104.6306,Pekajang   ,PJN,CB01050400,WGS1984,,Peta Sebaran Pelabuhan Umum skala 1:50.000.xml,0,0,DABO SINGKEP - KEPULAUAN RIAU,,Kepulauan Riau,Lingga  ,21,21.04,,,,,,,,,,,,,0,,,,,,,,0,,,,,,,,,,,,,,,,,,,,,,,,,,,,,,,,,,,,,Pelabuhan Pengumpan Regional,PR
66,0.046342,104.6479,Senayang   ,SYG,CB01050400,WGS1984,,Peta Sebaran Pelabuhan Umum skala 1:50.000.xml,0,0,SENAYANG - KEPULAUAN RIAU,,Kepulauan Riau,Lingga  ,21,21.04,,,,,,,,,,,,,0,,,,,,,,0,,,,,,,,,,,,,,,,,,,,,,,,,,,,,,,,,,,,,Pelabuhan Pengumpan Regional,PR
67,3.662404,108.1320431,Selat Lampa  ,STA,CB01050400,WGS1984,,Peta Sebaran Pelabuhan Umum skala 1:50.000.xml,Unit Penyelenggara Pelabuhan,Kantor Unit Penyelenggara Pelabuhan Kelas II Tarempa,PASIR PANJANG - KEPULAUAN RIAU,,Kepulauan Riau,Natuna  ,21,21.03,,,,,,,,,,,,,Operasi,,,,,,,,-,,,,,,,,,,,,,,,,,,,,,,,,,,,,,,,,,,,,,Pelabuhan Pengumpan,PP
68,3.005333,107.748,Midai   ,MDA,CB01050400,WGS1984,,Peta Sebaran Pelabuhan Umum skala 1:50.000.xml,Wilker Tarempa UPP,0,PASIR PANJANG - KEPULAUAN RIAU,,Kepulauan Riau,Natuna  ,21,21.03,,,,,,,,,,,,,0,,,,,,,,0,,,,,,,,,,,,,,,,,,,,,,,,,,,,,,,,,,,,,Pelabuhan Lokal,PL
69,4.117161,107.8545,Pulau Seluan  ,PUN,CB01050400,WGS1984,,Peta Sebaran Pelabuhan Umum skala 1:50.000.xml,0,0,PASIR PANJANG - KEPULAUAN RIAU,,Kepulauan Riau,Natuna  ,21,21.03,,,,,,,,,,,,,0,,,,,,,,0,,,,,,,,,,,,,,,,,,,,,,,,,,,,,,,,,,,,,Pelabuhan Lokal,PL
70,4.675028,107.9512,Pulau Laut  ,IPC,CB01050400,WGS1984,,Peta Sebaran Pelabuhan Umum skala 1:50.000.xml,0,0,PASIR PANJANG - KEPULAUAN RIAU,,Kepulauan Riau,Natuna  ,21,21.03,,,,,,,,,,,,,0,,,,,,,,0,,,,,,,,,,,,,,,,,,,,,,,,,,,,,,,,,,,,,Pelabuhan Pengumpan Regional,PR
71,3.893428,108.3921,Ranai   ,RNI,CB01050400,WGS1984,,Peta Sebaran Pelabuhan Umum skala 1:50.000.xml,0,0,PASIR PANJANG - KEPULAUAN RIAU,,Kepulauan Riau,Natuna  ,21,21.03,,,,,,,,,,,,,0,,,,,,,,0,,,,,,,,,,,,,,,,,,,,,,,,,,,,,,,,,,,,,Pelabuhan Pengumpan Regional,PR
73,2.497342,109.0082,Serasan   ,SRS,CB01050400,WGS1984,,Peta Sebaran Pelabuhan Umum skala 1:50.000.xml,0,0,PASIR PANJANG - KEPULAUAN RIAU,,Kepulauan Riau,Natuna  ,21,21.03,,,,,,,,,,,,,0,,,,,,,,0,,,,,,,,,,,,,,,,,,,,,,,,,,,,,,,,,,,,,Pelabuhan Pengumpan Regional,PR
74,3.012903,108.8637,Subi   ,SUI,CB01050400,WGS1984,,Peta Sebaran Pelabuhan Umum skala 1:50.000.xml,0,0,PASIR PANJANG - KEPULAUAN RIAU,,Kepulauan Riau,Natuna  ,21,21.03,,,,,,,,,,,,,0,,,,,,,,0,,,,,,,,,,,,,,,,,,,,,,,,,,,,,,,,,,,,,Pelabuhan Pengumpan Regional,PR
75,0.932222,104.4389,Tanjung Pinang ,TNJ,CB01050400,WGS1984,,Peta Sebaran Pelabuhan Umum skala 1:50.000.xml,0,0,Jl. SM. Amin No. 18 Kota Tanjung Pinang Kepulauan Riau 29111 Telp/Fax. 0771-21014 ksoptanjungpinang@dephub.go.id,,Kepulauan Riau,Tanjung Pinang ,21,21.72,,,,,,,,,,,,,0,,,,,,,,0,,,,,,,,,,,,,,,,,,,,,,,,,,,,,,,,,,,,,Pelabuhan Pengumpan,PP
76,0.885139,104.4497,Dompak  ,DMK,CB01050400,WGS1984,,Peta Sebaran Pelabuhan Umum skala 1:50.000.xml,0,0,Jl. SM. Amin No. 18 Kota Tanjung Pinang Kepulauan Riau 29111 Telp/Fax. 0771-21014 ksoptanjungpinang@dephub.go.id,,Kepulauan Riau,Tanjung Pinang ,21,21.72,,,,,,,,,,,,,0,,,,,,,,0,,,,,,,,,,,,,,,,,,,,,,,,,,,,,,,,,,,,,Pelabuhan Pengumpan Regional,PR
77,0.833683,104.4991,Tanjung Moco,MCO,CB01050400,WGS1984,,Peta Sebaran Pelabuhan Umum skala 1:50.000.xml,0,0,Jl. SM. Amin No. 18 Kota Tanjung Pinang Kepulauan Riau 29111 Telp/Fax. 0771-21014 ksoptanjungpinang@dephub.go.id,,Kepulauan Riau,Tanjung Pinang ,21,21.72,,,,,,,,,,,,,0,,,,,,,,0,,,,,,,,,,,,,,,,,,,,,,,,,,,,,,,,,,,,,Pelabuhan Pengumpan,PP
78,1.7081909,101.5140381,Batu Panjang  ,BPA,CB01050400,WGS1984,,Peta Sebaran Pelabuhan Umum skala 1:50.000.xml,Unit Penyelenggara Pelabuhan,Kantor Unit Penyelenggara Pelabuhan Kelas III Batu Panjang,BENGKALIS,,Riau,Bengkalis  ,14,14.03,,,,,,,,,,,,,Operasi,1,,,,,,,-,,,,,,,,,,,,,,,,,,,,,,,,,,,,,,,,,,,,,Pelabuhan Pengumpan Regional,PR
79,1.5610352,102.2634277,Bengkalis   ,BKI,CB01050400,WGS1984,,Peta Sebaran Pelabuhan Umum skala 1:50.000.xml,Kesyahbandaraan dan Otoritas Pelabuhan,Kantor Kesyahbandaran dan Otoritas Pelabuhan Kelas V Bengkalis,Jl. A. Yani No. 5 Rt. 01/Rw. 01 Bengkalis - Riau 28712,,Riau,Bengkalis  ,14,14.03,,,,,,,,,,,,,Operasi,1,,,,,,,PT. Pelindo I (Persero) Dumai,,,,,,,,,,,,,,,,,,,,,,,,,,,,,,,,,,,,,Pelabuhan Pengumpan,PP
80,1.3776245,102.1472168,Sungai Pakning  ,SEQ,CB01050400,WGS1984,,Peta Sebaran Pelabuhan Umum skala 1:50.000.xml,Kesyahbandaraan dan Otoritas Pelabuhan,Kantor Kesyahbandaran dan Otoritas Pelabuhan Kelas III Sungai Pakning,bengkalis,,Riau,Bengkalis  ,14,14.03,,,,,,,,,,,,,Operasi,1,,,,,,,PT. Pelindo I (Persero) Sei Pakning,,,,,,,,,,,,,,,,,,,,,,,,,,,,,,,,,,,,,Pelabuhan Pengumpan,PP
81,2.1116333,101.6362305,Tanjung Medang  ,TMD,CB01050400,WGS1984,,Peta Sebaran Pelabuhan Umum skala 1:50.000.xml,Unit Penyelenggara Pelabuhan,Kantor Unit Penyelenggara Pelabuhan Kelas III Tanjung Medang,BENGKALIS,,Riau,Bengkalis  ,14,14.03,,,,,,,,,,,,,Operasi,1,,,,,,,-,,,,,,,,,,,,,,,,,,,,,,,,,,,,,,,,,,,,,Pelabuhan Pengumpan Regional,PR
82,1.6871948,101.4576416,Dumai   ,DUM,CB01050400,WGS1984,,Peta Sebaran Pelabuhan Umum skala 1:50.000.xml,Kesyahbandaraan dan Otoritas Pelabuhan,Kantor Kesyahbandaran dan Otoritas Pelabuhan Kelas I Dumai,Jl. Yos Sudarso No. 9 Dumai Riau 28814,,Riau,Dumai  ,14,14.72,,,,,,,,,,,,,Operasi,1,,,,,,,PT. Pelindo I (Persero) Dumai,,,,,,,,,,,,,,,,,,,,,,,,,,,,,,,,,,,,,Pelabuhan Utama,PU
83,-0.5269775,103.4066162,Kuala Enok ,ENO,CB01050400,WGS1984,,Peta Sebaran Pelabuhan Umum skala 1:50.000.xml,Kesyahbandaraan dan Otoritas Pelabuhan,Kantor Kesyahbandaran dan Otoritas Pelabuhan Kelas III Kuala Enok,riau,,Riau,Indragiri Hilir ,14,14.04,,,,,,,,,,,,,Operasi,1,,,,,,,PT. Pelindo I (Persero) Tembilahan,,,,,,,,,,,,,,,,,,,,,,,,,,,,,,,,,,,,,Pelabuhan Pengumpan,PP
84,-0.1691895,103.4576416,Kuala Gaung ,KGQ,CB01050400,WGS1984,,Peta Sebaran Pelabuhan Umum skala 1:50.000.xml,Unit Penyelenggara Pelabuhan,Kantor Unit Penyelenggara Pelabuhan Kelas III Kuala Gaung,INDRAGIRI HILIR,,Riau,Indragiri Hilir ,14,14.04,,,,,,,,,,,,,Operasi,1,,,,,,,-,,,,,,,,,,,,,,,,,,,,,,,,,,,,,,,,,,,,,Pelabuhan Pengumpan Regional,PR
85,0.2050171,103.5101929,Sungai Guntung ,SUQ,CB01050400,WGS1984,,Peta Sebaran Pelabuhan Umum skala 1:50.000.xml,Unit Penyelenggara Pelabuhan,Kantor Unit Penyelenggara Pelabuhan Kelas III Sungai Gantung/Guntung,INDRAGIRI HILIR,,Riau,Indragiri Hilir ,14,14.04,,,,,,,,,,,,,Operasi,1,,,,,,,-,,,,,,,,,,,,,,,,,,,,,,,,,,,,,,,,,,,,,Pelabuhan Pengumpan Regional,PR
86,-0.3013916,103.1982422,Tembilahan ,TLN,CB01050400,WGS1984,,Peta Sebaran Pelabuhan Umum skala 1:50.000.xml,Kesyahbandaraan dan Otoritas Pelabuhan,Kantor Kesyahbandaran dan Otoritas Pelabuhan Kelas IV Tembilahan,Jl. Jend. Sudirman No. 75 Tembilahan Kab. Indragiri Hilir - Riau 29212 Telp/Fax. 0768-22033 Email : ksoptembilahan@gmail.com,,Riau,Indragiri Hilir ,14,14.04,,,,,,,,,,,,,Operasi,1,,,,,,,PT. Pelindo I (Persero) Tembilahan,,,,,,,,,,,,,,,,,,,,,,,,,,,,,,,,,,,,,Pelabuhan Pengumpan,PP
87,-0.4724731,102.6885986,Rengat/Kuala Cinaku ,RCI,CB01050400,WGS1984,,Peta Sebaran Pelabuhan Umum skala 1:50.000.xml,Kesyahbandaraan dan Otoritas Pelabuhan,Kantor Kesyahbandaran dan Otoritas Pelabuhan Kelas IV Rengat/Kuala Cinaku,"Jl. Ahmad Yani No. 10 Rengat Inhu - Riau 29319 TelPulau 0769-323355, Fax. 0769-323466 ksoprengat@dephub.go.id",,Riau,Indragiri Hulu ,14,14.02,,,,,,,,,,,,,Operasi,1,,,,,,,PT. Pelindo I (Persero) Pekanbaru,,,,,,,,,,,,,,,,,,,,,,,,,,,,,,,,,,,,,Pelabuhan Pengumpan Regional,PR
88,1.0158081,102.7161865,Selat Panjang ,SLJ,CB01050400,WGS1984,,Peta Sebaran Pelabuhan Umum skala 1:50.000.xml,Kesyahbandaraan dan Otoritas Pelabuhan,Kantor Kesyahbandaran dan Otoritas Pelabuhan Kelas V Selat Panjang,Jl. Pelabuhan No. 2 Selat Panjang Riau 28753,,Riau,Kepulauan Meranti ,14,14.1,,,,,,,,,,,,,Operasi,1,,,,,,,-,,,,,,,,,,,,,,,,,,,,,,,,,,,,,,,,,,,,,Pelabuhan Pengumpan,PP
90,0.3099976,101.5859985,Pekanbaru   ,PQR,CB01050400,WGS1984,,Peta Sebaran Pelabuhan Umum skala 1:50.000.xml,Kesyahbandaraan dan Otoritas Pelabuhan,Kantor Kesyahbandaran dan Otoritas Pelabuhan Kelas III Pekanbaru,Jl. Kampung Dalam I Rt.01/05 Pekanbaru - Riau 28152,,Riau,Pekanbaru  ,14,14.71,,,,,,,,,,,,,Operasi,1,,,,,,,-,,,,,,,,,,,,,,,,,,,,,,,,,,,,,,,,,,,,,Pelabuhan Pengumpan,PP
91,2.180603,100.6508179,Bagan Siapi-api ,IBI,CB01050400,WGS1984,,Peta Sebaran Pelabuhan Umum skala 1:50.000.xml,Kesyahbandaraan dan Otoritas Pelabuhan,Kantor Kesyahbandaran dan Otoritas Pelabuhan Kelas V Bagan Siapi-api,"Jl. Syahbandar No. 4/B Bagan Siapiapi TelPulau 0767-21264, Fax. 0767-23150 adpelbagansiapiapi@yahoo.com",,Riau,Rokan Hilir ,14,14.07,,,,,,,,,,,,,Operasi,1,,,,,,,PT. Pelindo I (Persero) Dumai,,,,,,,,,,,,,,,,,,,,,,,,,,,,,,,,,,,,,Pelabuhan Pengumpan Regional,PR
92,2.4696045,100.3460083,Panipahan  ,PIN,CB01050400,WGS1984,,Peta Sebaran Pelabuhan Umum skala 1:50.000.xml,Unit Penyelenggara Pelabuhan,Kantor Unit Penyelenggara Pelabuhan Kelas III Panipahan,BENGKALIS,,Riau,Rokan Hilir ,14,14.07,,,,,,,,,,,,,Operasi,1,,,,,,,-,,,,,,,,,,,,,,,,,,,,,,,,,,,,,,,,,,,,,Pelabuhan Pengumpan Regional,PR
93,2.2924194,100.9794312,Sinaboi  ,SNI,CB01050400,WGS1984,,Peta Sebaran Pelabuhan Umum skala 1:50.000.xml,Unit Penyelenggara Pelabuhan,Kantor Unit Penyelenggara Pelabuhan Kelas III Sinaboi,BENGKALIS,,Riau,Rokan Hilir ,14,14.07,,,,,,,,,,,,,Operasi,1,,,,,,,-,,,,,,,,,,,,,,,,,,,,,,,,,,,,,,,,,,,,,Pelabuhan Pengumpan Regional,PR
94,2.111036,100.7976,Batu Enam ,BUM,CB01050400,WGS1984,,Peta Sebaran Pelabuhan Umum skala 1:50.000.xml,0,0,BENGKALIS,,Riau,Rokan Hilir ,14,14.07,,,,,,,,,,,,,0,,,,,,,,0,,,,,,,,,,,,,,,,,,,,,,,,,,,,,,,,,,,,,Pelabuhan Lokal,PL
95,0.9680176,102.2510376,Tanjung Buton  ,BUT,CB01050400,WGS1984,,Peta Sebaran Pelabuhan Umum skala 1:50.000.xml,Kesyahbandaraan dan Otoritas Pelabuhan,Kantor Kesyahbandaran dan Otoritas Pelabuhan Kelas V Selat Panjang,bengkalis,,Riau,Siak  ,14,14.08,,,,,,,,,,,,,Operasi,1,,,,,,,-,,,,,,,,,,,,,,,,,,,,,,,,,,,,,,,,,,,,,Pelabuhan Pengumpan,PP
96,-3.907898,102.3057861,Pulau Baai  ,BKS,CB01050400,WGS1984,,Peta Sebaran Pelabuhan Umum skala 1:50.000.xml,Kesyahbandaraan dan Otoritas Pelabuhan,Kantor Kesyahbandaran dan Otoritas Pelabuhan Kelas III Pulau Baai,Jl. Ir. Rustandi Sugianto Pulau Baai Bengkulu 38216,,Bengkulu,Bengkulu  ,17,17.71,,,,,,,,,,,,,Operasi,1,,,,,,,PT. Pelindo II (Persero) Bengkulu,,,,,,,,,,,,,,,,,,,,,,,,,,,,,,,,,,,,,Pelabuhan Utama,PU
97,-5.4251709,102.3756104,Malakoni/Pulau Enggano ,MKI,CB01050400,WGS1984,,Peta Sebaran Pelabuhan Umum skala 1:50.000.xml,Unit Penyelenggara Pelabuhan,Kantor Unit Penyelenggara Pelabuhan Kelas III Melakoni Enggano,BENGKULU SELATAN,,Bengkulu,Bengkulu Utara ,17,17.03,,,,,,,,,,,,,Operasi,1,,,,,,,-,,,,,,,,,,,,,,,,,,,,,,,,,,,,,,,,,,,,,Pelabuhan Pengumpan Regional,PR
98,-4.8432007,103.4130249,Bintuhan/Linau   ,IBJ,CB01050400,WGS1984,,Peta Sebaran Pelabuhan Umum skala 1:50.000.xml,Unit Penyelenggara Pelabuhan,Kantor Unit Penyelenggara Pelabuhan Kelas III Bintuhan,Jl. Pelabuhan Linau Bintuhan Kab. Kaur Bengkulu 38565,,Bengkulu,Kaur  ,17,17.04,,,,,,,,,,,,,Operasi,1,,,,,,,-,,,,,,,,,,,,,,,,,,,,,,,,,,,,,,,,,,,,,Pelabuhan Pengumpan,PP
99,-2.6675859,100.9219623,Muko-Muko ,MPC,CB01050400,WGS1984,,Peta Sebaran Pelabuhan Umum skala 1:50.000.xml,0,0,Jl. Pelabuhan Linau Bintuhan Kab. Kaur Bengkulu 38565,,Bengkulu,Muko Muko,17,17.06,,,,,,,,,,,,,0,,,,,,,,0,,,,,,,,,,,,,,,,,,,,,,,,,,,,,,,,,,,,,Pelabuhan Pengumpan Regional,PR
100,-1.53444,103.6599,Talang Duku ,TNU,CB01050400,WGS1984,,Peta Sebaran Pelabuhan Umum skala 1:50.000.xml,0,0,"Jl. Raya Pelabuhan Km. 9 Talang Dukuh - Jambi 36381 TelPulau 0741-22844, 22020, Fax. 0741-25280 ksopjambi@dephub.go.id",,Jambi,Muaro Jambi ,15,15.05,,,,,,,,,,,,,0,,,,,,,,0,,,,,,,,,,,,,,,,,,,,,,,,,,,,,,,,,,,,,Pelabuhan Pengumpan,PP
103,-1.121582,103.8439941,Muara Sabak,MSK,CB01050400,WGS1984,,Peta Sebaran Pelabuhan Umum skala 1:50.000.xml,Kesyahbandaraan dan Otoritas Pelabuhan,Kantor Kesyahbandaran dan Otoritas Pelabuhan Kelas V Muara Sabak,Jl. Syahbandar No. 5 Jambi,,Jambi,Tanjung Jabung Timur,15,15.07,,,,,,,,,,,,,Operasi,1,,,,,,,-,,,,,,,,,,,,,,,,,,,,,,,,,,,,,,,,,,,,,Pelabuhan Pengumpan,PP
105,-1.02553,104.3676,Ujung Jabung,UJB,CB01050400,WGS1984,,Peta Sebaran Pelabuhan Umum skala 1:50.000.xml,0,0,LUWU,,Jambi,Tanjung Jabung Timur,15,15.07,,,,,,,,,,,,,0,,,,,,,,0,,,,,,,,,,,,,,,,,,,,,,,,,,,,,,,,,,,,,Pelabuhan Pengumpan,PP
106,-2.36394,104.8148,Tanjung Api-Api  ,TGP,CB01050400,WGS1984,,Peta Sebaran Pelabuhan Umum skala 1:50.000.xml,0,0,"Kab. Banyuasin, Rimau Sungsang, Palembang, Kabupaten Banyu Asin, Sumatera Selatan 30971",,Sumatera Selatan,Banyuasin  ,16,16.07,,,,,,,,,,,,,0,,,,,,,,0,,,,,,,,,,,,,,,,,,,,,,,,,,,,,,,,,,,,,Pelabuhan Pengumpan,PP
107,-2.3639,104.9044,Sungsang   ,SGG,CB01050400,WGS1984,,Peta Sebaran Pelabuhan Umum skala 1:50.000.xml,0,0,Banyuasin-Sumatera Selatan,,Sumatera Selatan,Banyuasin  ,16,16.07,,,,,,,,,,,,,0,,,,,,,,0,,,,,,,,,,,,,,,,,,,,,,,,,,,,,,,,,,,,,Pelabuhan Lokal,PL
108,-2.30836,104.6021,Karang Agung  ,KGG,CB01050400,WGS1984,,Peta Sebaran Pelabuhan Umum skala 1:50.000.xml,0,0,Banyuasin-Sumatera Selatan,,Sumatera Selatan,Banyuasin  ,16,16.07,,,,,,,,,,,,,0,,,,,,,,0,,,,,,,,,,,,,,,,,,,,,,,,,,,,,,,,,,,,,Pelabuhan Lokal,PL
109,-4.09224,105.6607,Mesuji/ Oki,IMS,CB01050400,WGS1984,,Peta Sebaran Pelabuhan Umum skala 1:50.000.xml,0,0,OGAN KOMERING ILIR,,Sumatera Selatan,Ogan Komering Ilir,16,16.02,,,,,,,,,,,,,0,,,,,,,,0,,,,,,,,,,,,,,,,,,,,,,,,,,,,,,,,,,,,,Pelabuhan Lokal,PL
110,-3.4102783,105.8748169,Sungai Lumpur,SLU,CB01050400,WGS1984,,Peta Sebaran Pelabuhan Umum skala 1:50.000.xml,Unit Penyelenggara Pelabuhan,Kantor Unit Penyelenggara Pelabuhan Kelas III Sungai Lumpur,OGAN KOMERING ILIR,,Sumatera Selatan,Ogan Komering Ilir,16,16.02,,,,,,,,,,,,,Operasi,1,,,,,,,-,,,,,,,,,,,,,,,,,,,,,,,,,,,,,,,,,,,,,Pelabuhan Pengumpan,PP
111,-2.9916992,104.7608032,Boom Baru/ Palembang  ,ING,CB01050400,WGS1984,,Peta Sebaran Pelabuhan Umum skala 1:50.000.xml,Kesyahbandaraan dan Otoritas Pelabuhan,Kantor Kesyahbandaran dan Otoritas Pelabuhan Kelas II Palembang,Banyuasin-Sumatera Selatan,,Sumatera Selatan,Palembang  ,16,16.71,,,,,,,,,,,,,Operasi,1,,,,,,,-,,,,,,,,,,,,,,,,,,,,,,,,,,,,,,,,,,,,,Pelabuhan Utama,PU
112,-3.0171086,104.747977,Kertapati   ,KTI,CB01050400,WGS1984,,Peta Sebaran Pelabuhan Umum skala 1:50.000.xml,0,0,Banyuasin-Sumatera Selatan,,Sumatera Selatan,Palembang  ,16,16.71,,,,,,,,,,,,,0,,,,,,,,0,,,,,,,,,,,,,,,,,,,,,,,,,,,,,,,,,,,,,Pelabuhan Pengumpan,PP
113,-1.63019,105.733,Belinyu   ,BLU,CB01050400,WGS1984,,Peta Sebaran Pelabuhan Umum skala 1:50.000.xml,Wilker KSOP Pangkal Balam,0,-,,Kepulauan Bangka Belitung,Bangka  ,19,19.01,,,,,,,,,,,,,0,,,,,,,,0,,,,,,,,,,,,,,,,,,,,,,,,,,,,,,,,,,,,,Pelabuhan Pengumpan,PP
114,-2.0758057,105.1791992,Muntok  ,MUO,CB01050400,WGS1984,,Peta Sebaran Pelabuhan Umum skala 1:50.000.xml,Kesyahbandaraan dan Otoritas Pelabuhan,Kantor Kesyahbandaran dan Otoritas Pelabuhan Kelas V Muntok,Jl. Yos Sudarso No. 1 Muntok Bangka Belitung 33311,,Kepulauan Bangka Belitung,Bangka Barat ,19,19.05,,,,,,,,,,,,,Operasi,1,,,,,,,-,,,,,,,,,,,,,,,,,,,,,,,,,,,,,,,,,,,,,Pelabuhan Pengumpan Regional,PR
115,-3.0053711,106.7391968,Toboali  ,TBL,CB01050400,WGS1984,,Peta Sebaran Pelabuhan Umum skala 1:50.000.xml,Unit Penyelenggara Pelabuhan,Kantor Unit Penyelenggara Pelabuhan Kelas III Toboali,BANGKA,,Kepulauan Bangka Belitung,Bangka Selatan ,19,19.03,,,,,,,,,,,,,Operasi,1,,,,,,,-,,,,,,,,,,,,,,,,,,,,,,,,,,,,,,,,,,,,,Pelabuhan Lokal,PL
116,-3.00525,106.738,Sadai  ,SDI,CB01050400,WGS1984,,Peta Sebaran Pelabuhan Umum skala 1:50.000.xml,Unit Penyelenggara Pelabuhan,0,BANGKA,,Kepulauan Bangka Belitung,Bangka Selatan ,19,19.03,,,,,,,,,,,,,0,,,,,,,,0,,,,,,,,,,,,,,,,,,,,,,,,,,,,,,,,,,,,,Pelabuhan Pengumpan,PP
118,-2.7438965,107.6329956,Tanjung Pandan  ,TJQ,CB01050400,WGS1984,,Peta Sebaran Pelabuhan Umum skala 1:50.000.xml,Kesyahbandaraan dan Otoritas Pelabuhan,Kantor Kesyahbandaran dan Otoritas Pelabuhan Kelas IV Tanjung Pandan,Jl. Pelabuhan No. 1 Tanjung Pandan Belitung 33411,,Kepulauan Bangka Belitung,Belitung  ,19,19.02,,,,,,,,,,,,,Operasi,4,,,,,,,PT. Pelindo II (Persero) Tanjung Pandan,,,,,,,,,,,,,,,,,,,,,,,,,,,,,,,,,,,,,Pelabuhan Pengumpan,PP
119,-2.8482056,108.2902222,Manggar  ,BLT,CB01050400,WGS1984,,Peta Sebaran Pelabuhan Umum skala 1:50.000.xml,Unit Penyelenggara Pelabuhan,Kantor Unit Penyelenggara Pelabuhan Kelas I Manggar,Jl. Jend. Sudirman No. 74 Rt.27,,Kepulauan Bangka Belitung,Belitung Timur ,19,19.06,,,,,,,,,,,,,Operasi,1,,,,,,,-,,,,,,,,,,,,,,,,,,,,,,,,,,,,,,,,,,,,,Pelabuhan Lokal,PL
120,-2.0982666,106.1298218,Pangkal Balam  ,PGX,CB01050400,WGS1984,,Peta Sebaran Pelabuhan Umum skala 1:50.000.xml,Kesyahbandaraan dan Otoritas Pelabuhan,Kantor Kesyahbandaran dan Otoritas Pelabuhan Kelas IV Pangkal Balam,-,,Kepulauan Bangka Belitung,Pangkal Pinang  ,19,19.71,,,,,,,,,,,,,Operasi,1,,,,,,,PT. Pelindo II (Persero) Pangkal Balam,,,,,,,,,,,,,,,,,,,,,,,,,,,,,,,,,,,,,Pelabuhan Pengumpan,PP
121,-5.4660645,105.319397,Panjang  ,PNJ,CB01050400,WGS1984,,Peta Sebaran Pelabuhan Umum skala 1:50.000.xml,Kesyahbandaraan dan Otoritas Pelabuhan,Kantor Kesyahbandaran dan Otoritas Pelabuhan Kelas I Panjang,"Jl. Yos Sudarso No. 34A Panjang Bandar Lampung, Lampung 35241",,Lampung,Bandar Lampung ,18,18.71,,,,,,,,,,,,,Operasi,1,,,,,,,PT. Pelindo II (Persero) Panjang,,,,,,,,,,,,,,,,,,,,,,,,,,,,,,,,,,,,,Pelabuhan Utama,PU
123,-5.58683,105.3833,Sebalang  ,SEL,CB01050400,WGS1984,,Peta Sebaran Pelabuhan Umum skala 1:50.000.xml,0,0,BANDAR LAMPUNG,,Lampung,Lampung Selatan ,18,18.01,,,,,,,,,,,,,0,,,,,,,,0,,,,,,,,,,,,,,,,,,,,,,,,,,,,,,,,,,,,,Pelabuhan Pengumpan Regional,PR
124,-5.35973,105.8198,Labuhan Maringgai ,LMA,CB01050400,WGS1984,,Peta Sebaran Pelabuhan Umum skala 1:50.000.xml,0,0,"Muara Gading Mas Labuhan Maringgai Lampung Timur,",,Lampung,Lampung Timur ,18,18.07,,,,,,,,,,,,,0,,,,,,,,0,,,,,,,,,,,,,,,,,,,,,,,,,,,,,,,,,,,,,Pelabuhan Pengumpan Regional,PR
126,-5.4993897,104.6202393,Kota Agung/ Batu Balai ,TAG,CB01050400,WGS1984,,Peta Sebaran Pelabuhan Umum skala 1:50.000.xml,Unit Penyelenggara Pelabuhan,Kantor Unit Penyelenggara Pelabuhan Kelas III Kota Agung,LAMPUNG SELATAN,,Lampung,Tanggamus  ,18,18.06,,,,,,,,,,,,,Operasi,1,,,,,,,-,,,,,,,,,,,,,,,,,,,,,,,,,,,,,,,,,,,,,Pelabuhan Pengumpan,PP
127,-4.7933596,104.114038,Menggala  ,MGA,CB01050400,WGS1984,,Peta Sebaran Pelabuhan Umum skala 1:50.000.xml,0,0,TULANG BAWANG,,Lampung,Tulang Bawang ,18,18.05,,,,,,,,,,,,,0,,,,,,,,0,,,,,,,,,,,,,,,,,,,,,,,,,,,,,,,,,,,,,Pelabuhan Pengumpan Regional,PR
128,-5.7524108,105.7965769,Lagundi  ,LGI,CB01050400,WGS1984,,Peta Sebaran Pelabuhan Umum skala 1:50.000.xml,0,0,BANDAR LAMPUNG,,Lampung,Lampung Selatan ,18,18.01,,,,,,,,,,,,,0,,,,,,,,0,,,,,,,,,,,,,,,,,,,,,,,,,,,,,,,,,,,,,Pelabuhan Lokal,PL
129,-5.7299686,105.2391437,Kalianda ,KND,CB01050400,WGS1984,,Peta Sebaran Pelabuhan Umum skala 1:50.000.xml,0,0,BANDAR LAMPUNG,,Lampung,Lampung Selatan ,18,18.01,,,,,,,,,,,,,0,,,,,,,,0,,,,,,,,,,,,,,,,,,,,,,,,,,,,,,,,,,,,,Pelabuhan Lokal,PL
130,-5.9350672,105.4951531,Pulau Sebesi ,PES,CB01050400,WGS1984,,Peta Sebaran Pelabuhan Umum skala 1:50.000.xml,Unit Penyelenggara Pelabuhan,Kantor Unit Penyelenggara Pelabuhan Kelas III Teluk Betung,BANDAR LAMPUNG,,Lampung,Lampung Selatan ,18,18.01,,,,,,,,,,,,,Operasi,,,,,,,,-,,,,,,,,,,,,,,,,,,,,,,,,,,,,,,,,,,,,,Pelabuhan Lokal,PL
131,-5.76081,104.787,Pulau Tabuan   ,PTB,CB01050400,WGS1984,,Peta Sebaran Pelabuhan Umum skala 1:50.000.xml,0,0,LAMPUNG SELATAN,,Lampung,Tanggamus  ,18,18.06,,,,,,,,,,,,,0,,,,,,,,0,,,,,,,,,,,,,,,,,,,,,,,,,,,,,,,,,,,,,Pelabuhan Lokal,PL
132,-6.017273,105.9545898,Banten   ,IBP,CB01050400,WGS1984,,Peta Sebaran Pelabuhan Umum skala 1:50.000.xml,Kesyahbandaraan dan Otoritas Pelabuhan,Kantor Kesyahbandaran dan Otoritas Pelabuhan Kelas I Banten,Jl. Yos Sudarso No. 120 Merak Banten 42438,,Banten,Cilegon  ,36,36.72,,,,,,,,,,,,,Operasi,1,,,,,,,-,,,,,,,,,,,,,,,,,,,,,,,,,,,,,,,,,,,,,Pelabuhan Utama,PU
133,-6.3602905,105.8214111,Labuhan   ,LAJ,CB01050400,WGS1984,,Peta Sebaran Pelabuhan Umum skala 1:50.000.xml,Unit Penyelenggara Pelabuhan,Kantor Unit Penyelenggara Pelabuhan Kelas III Labuhan,-,,Banten,Pandeglang  ,36,36.01,,,,,,,,,,,,,Operasi,1,,,,,,,-,,,,,,,,,,,,,,,,,,,,,,,,,,,,,,,,,,,,,Pelabuhan Pengumpan Regional,PR
134,-6.026001,105.9398193,Anyer Lor  ,ALO,CB01050400,WGS1984,,Peta Sebaran Pelabuhan Umum skala 1:50.000.xml,Unit Penyelenggara Pelabuhan,Kantor Unit Penyelenggara Pelabuhan Kelas III Anyer Lor,SERANG,,Banten,Serang  ,36,36.04,,,,,,,,,,,,,Operasi,1,,,,,,,-,,,,,,,,,,,,,,,,,,,,,,,,,,,,,,,,,,,,,Pelabuhan Pengumpan Regional,PR
135,-5.9099731,106.0958252,Bojonegara   ,BGA,CB01050400,WGS1984,,Peta Sebaran Pelabuhan Umum skala 1:50.000.xml,Unit Penyelenggara Pelabuhan,Kantor Unit Penyelenggara Pelabuhan Kelas III Bojonegara,SERANG,,Banten,Serang  ,36,36.04,,,,,,,,,,,,,Operasi,1,,,,,,,-,,,,,,,,,,,,,,,,,,,,,,,,,,,,,,,,,,,,,Pelabuhan Pengumpan,PP
136,-6.0308838,106.1644287,Karangantu   ,KNU,CB01050400,WGS1984,,Peta Sebaran Pelabuhan Umum skala 1:50.000.xml,Unit Penyelenggara Pelabuhan,Kantor Unit Penyelenggara Pelabuhan Kelas III Karangantu,SERANG,,Banten,Serang  ,36,36.04,,,,,,,,,,,,,Operasi,1,,,,,,,-,,,,,,,,,,,,,,,,,,,,,,,,,,,,,,,,,,,,,Pelabuhan Pengumpan Regional,PR
137,-6.0327759,106.5780029,Cituis   ,CTS,CB01050400,WGS1984,,Peta Sebaran Pelabuhan Umum skala 1:50.000.xml,Unit Penyelenggara Pelabuhan,Kantor Unit Penyelenggara Pelabuhan Kelas III Karangantu,SERANG,,Banten,Tangerang  ,36,36.03,,,,,,,,,,,,,Operasi,1,,,,,,,-,,,,,,,,,,,,,,,,,,,,,,,,,,,,,,,,,,,,,Pelabuhan Lokal,PL
138,-6.06066,106.4263,Kresek/ Kronjo   ,KEK,CB01050400,WGS1984,,Peta Sebaran Pelabuhan Umum skala 1:50.000.xml,Unit Penyelenggara Pelabuhan,0,SERANG,,Banten,Tangerang  ,36,36.03,,,,,,,,,,,,,0,,,,,,,,0,,,,,,,,,,,,,,,,,,,,,,,,,,,,,,,,,,,,,Pelabuhan Lokal,PL
139,-6.7133179,108.571228,Cirebon   ,CBN,CB01050400,WGS1984,,Peta Sebaran Pelabuhan Umum skala 1:50.000.xml,Kesyahbandaraan dan Otoritas Pelabuhan,Kantor Kesyahbandaran dan Otoritas Pelabuhan Kelas II Cirebon,Jl. Donggala No. 3 Cirebon Jawa Barat 45112,,Jawa Barat,Cirebon  ,32,32.09,,,,,,,,,,,,,Operasi,1,,,,,,,PT. Pelindo II (Persero) Cirebon,,,,,,,,,,,,,,,,,,,,,,,,,,,,,,,,,,,,,Pelabuhan Pengumpan,PP
140,-6.3076172,108.355835,Indramayu/Losarang   ,IRU,CB01050400,WGS1984,,Peta Sebaran Pelabuhan Umum skala 1:50.000.xml,Unit Penyelenggara Pelabuhan,Kantor Unit Penyelenggara Pelabuhan Kelas III Indramayu,-,,Jawa Barat,Indramayu  ,32,32.12,,,,,,,,,,,,,Operasi,1,,,,,,,-,,,,,,,,,,,,,,,,,,,,,,,,,,,,,,,,,,,,,Pelabuhan Lokal,PL
141,-7.6846924,108.6748047,Pangandaran/Bojongsalawe   ,PDR,CB01050400,WGS1984,,Peta Sebaran Pelabuhan Umum skala 1:50.000.xml,Unit Penyelenggara Pelabuhan,Kantor Unit Penyelenggara Pelabuhan Kelas III Pengandaran,INDRAMAYU,,Jawa Barat,Pangandaran  ,32,32.18,,,,,,,,,,,,,Operasi,1,,,,,,,-,,,,,,,,,,,,,,,,,,,,,,,,,,,,,,,,,,,,,Pelabuhan Lokal,PL
142,-6.2686768,107.6633911,Pamanukan-Blanakan   ,PMN,CB01050400,WGS1984,,Peta Sebaran Pelabuhan Umum skala 1:50.000.xml,Unit Penyelenggara Pelabuhan,Kantor Unit Penyelenggara Pelabuhan Kelas III Pemanukan,PAMANUKAN,,Jawa Barat,Subang  ,32,32.13,,,,,,,,,,,,,Operasi,1,,,,,,,-,,,,,,,,,,,,,,,,,,,,,,,,,,,,,,,,,,,,,Pelabuhan Lokal,PL
143,-6.2438965,107.9046021,Patimban   ,PTM,CB01050400,WGS1984,,Peta Sebaran Pelabuhan Umum skala 1:50.000.xml,Unit Penyelenggara Pelabuhan,Kantor Unit Penyelenggara Pelabuhan Kelas III Pemanukan,PAMANUKAN,,Jawa Barat,Subang  ,32,32.13,,,,,,,,,,,,,Operasi,1,,,,,,,-,,,,,,,,,,,,,,,,,,,,,,,,,,,,,,,,,,,,,Pelabuhan Utama,PU
144,-6.9901733,106.5419922,Palabuhanratu   ,PRA,CB01050400,WGS1984,,Peta Sebaran Pelabuhan Umum skala 1:50.000.xml,Unit Penyelenggara Pelabuhan,Kantor Unit Penyelenggara Pelabuhan Kelas III Pelabuhan Ratu,SUKABUMI,,Jawa Barat,Sukabumi  ,32,32.02,,,,,,,,,,,,,Operasi,1,,,,,,,-,,,,,,,,,,,,,,,,,,,,,,,,,,,,,,,,,,,,,Pelabuhan Pengumpan Regional,PR
145,-6.1026001,106.9190064,Kalibaru  ,KYU,CB01050400,WGS1984,,Peta Sebaran Pelabuhan Umum skala 1:50.000.xml,Kesyahbandaraan dan Otoritas Pelabuhan,Kantor Kesyahbandaran dan Otoritas Pelabuhan Kelas V Kalibaru,Jl. Raya Pelabuhan Kalibaru No. 1 Jakut 14140,,DKI Jakarta,Adm. Jakarta Utara ,31,31.72,,,,,,,,,,,,,Operasi,1,,,,,,,-,,,,,,,,,,,,,,,,,,,,,,,,,,,,,,,,,,,,,Pelabuhan Pengumpan Regional,PR
146,-6.0957031,106.9562378,Marunda  ,IMW,CB01050400,WGS1984,,Peta Sebaran Pelabuhan Umum skala 1:50.000.xml,Kesyahbandaraan dan Otoritas Pelabuhan,Kantor Kesyahbandaran dan Otoritas Pelabuhan Kelas V Marunda,Jl. Jayapura No. 1 KBN Marunda Cilincing Jakarta Utara 141210,,DKI Jakarta,Adm. Jakarta Utara ,31,31.72,,,,,,,,,,,,,Operasi,1,,,,,,,-,,,,,,,,,,,,,,,,,,,,,,,,,,,,,,,,,,,,,Pelabuhan Pengumpan,PP
147,-6.1044922,106.776001,Muara Angke ,MKA,CB01050400,WGS1984,,Peta Sebaran Pelabuhan Umum skala 1:50.000.xml,Kesyahbandaraan dan Otoritas Pelabuhan,Kantor Kesyahbandaran dan Otoritas Pelabuhan Kelas V Muara Angke,Jl. Dermaga No. 1 Pelabuhan Muara Angke Jakut 14450,,DKI Jakarta,Adm. Jakarta Utara ,31,31.72,,,,,,,,,,,,,Operasi,1,,,,,,,-,,,,,,,,,,,,,,,,,,,,,,,,,,,,,,,,,,,,,Pelabuhan Pengumpan Regional,PR
148,-6.097168,106.7999878,Muara Baru ,MBA,CB01050400,WGS1984,,Peta Sebaran Pelabuhan Umum skala 1:50.000.xml,Kesyahbandaraan dan Otoritas Pelabuhan,Kantor Kesyahbandaran dan Otoritas Pelabuhan Kelas V Muara Baru,"Jl. Muara Baru Ujung Pelabuhan Perikanan Samudra Muara Baru, Jakut 14440",,DKI Jakarta,Adm. Jakarta Utara ,31,31.72,,,,,,,,,,,,,Operasi,1,,,,,,,-,,,,,,,,,,,,,,,,,,,,,,,,,,,,,,,,,,,,,Pelabuhan Pengumpan,PP
149,-6.1173096,106.8088379,Sunda Kelapa ,SKE,CB01050400,WGS1984,,Peta Sebaran Pelabuhan Umum skala 1:50.000.xml,Kesyahbandaraan dan Otoritas Pelabuhan,Kantor Kesyahbandaran dan Otoritas Pelabuhan Kelas III Sunda Kelapa,Jl. Raya Baruna No. 2 Pelabuhan Sunda Kelapa Jakarta Utara 14430,,DKI Jakarta,Adm. Jakarta Utara ,31,31.72,,,,,,,,,,,,,Operasi,1,,,,,,,PT. Pelindo II (Persero) Sunda Kelapa,,,,,,,,,,,,,,,,,,,,,,,,,,,,,,,,,,,,,Pelabuhan Pengumpan,PP
150,-6.1016846,106.8881836,Tanjung priok ,TPR,CB01050400,WGS1984,,Peta Sebaran Pelabuhan Umum skala 1:50.000.xml,Otoritas Pelabuhan,Kantor Otoritas Pelabuhan Utama Tanjung Priok,Jl. Padamarang No. 4 Tanjung Priok Jakarta Utara 14310,,DKI Jakarta,Adm. Jakarta Utara ,31,31.72,,,,,,,,,,,,,Operasi,1,,,,,,,PT. Pelindo II (Persero) Tanjung Priok,,,,,,,,,,,,,,,,,,,,,,,,,,,,,,,,,,,,,Pelabuhan Utama,PU
152,-6.8771973,109.7490234,Batang   ,BTG,CB01050400,WGS1984,,Peta Sebaran Pelabuhan Umum skala 1:50.000.xml,Unit Penyelenggara Pelabuhan,Kantor Unit Penyelenggara Pelabuhan Kelas III Bitung,BATANG,,Jawa Tengah,Batang  ,33,33.25,,,,,,,,,,,,,Operasi,1,,,,,,,PT. Pelindo IV (Persero) Cabang Bitung,,,,,,,,,,,,,,,,,,,,,,,,,,,,,,,,,,,,,Pelabuhan Pengumpan Regional,PR
153,-6.87385,108.92,Brebes   ,BRE,CB01050400,WGS1984,,Peta Sebaran Pelabuhan Umum skala 1:50.000.xml,Unit Penyelenggara Pelabuhan,Kantor Unit Penyelenggara Pelabuhan Kelas III Brebes,BREBES,,Jawa Tengah,Brebes  ,33,33.29,,,,,,,,,,,,,Operasi,1,,,,,,,-,,,,,,,,,,,,,,,,,,,,,,,,,,,,,,,,,,,,,Pelabuhan Lokal,PL
155,-6.5780029,110.6503906,Jepara   ,JEP,CB01050400,WGS1984,,Peta Sebaran Pelabuhan Umum skala 1:50.000.xml,Unit Penyelenggara Pelabuhan,Kantor Unit Penyelenggara Pelabuhan Kelas III Jepara,JEPARA,,Jawa Tengah,Jepara  ,33,33.2,,,,,,,,,,,,,Operasi,1,,,,,,,-,,,,,,,,,,,,,,,,,,,,,,,,,,,,,,,,,,,,,Pelabuhan Pengumpan Regional,PR
156,-5.8792273,110.4319875,Karimun Jawa  ,KJA,CB01050400,WGS1984,,Peta Sebaran Pelabuhan Umum skala 1:50.000.xml,Unit Penyelenggara Pelabuhan,Kantor Unit Penyelenggara Pelabuhan Kelas III Karimun Jawa,JEPARA,,Jawa Tengah,Jepara  ,33,33.2,,,,,,,,,,,,,Operasi,1,,,,,,,-,,,,,,,,,,,,,,,,,,,,,,,,,,,,,,,,,,,,,Pelabuhan Pengumpan Regional,PR
157,-5.7880859,110.4776001,Legon Bajak  ,LKK,CB01050400,WGS1984,,Peta Sebaran Pelabuhan Umum skala 1:50.000.xml,Unit Penyelenggara Pelabuhan,Kantor Unit Penyelenggara Pelabuhan Kelas III Karimun Jawa,JEPARA,,Jawa Tengah,Jepara  ,33,33.2,,,,,,,,,,,,,Operasi,1,,,,,,,-,,,,,,,,,,,,,,,,,,,,,,,,,,,,,,,,,,,,,Pelabuhan Pengumpan Regional,PR
158,-6.9179688,110.2875977,Kendal   ,KDL,CB01050400,WGS1984,,Peta Sebaran Pelabuhan Umum skala 1:50.000.xml,Kesyahbandaraan dan Otoritas Pelabuhan,Kantor Kesyahbandaran dan Otoritas Pelabuhan Kelas I Tanjung Emas,Jl. Yos Sudarso No. 30 Kel. Tanjung Emas Kec. Semarang Jateng 50174 Telp/Fax. 024-3852335 ksoptanjungemas@dephub.go.id,,Jawa Tengah,Kendal  ,33,33.24,,,,,,,,,,,,,Operasi,1,,,,,,,PT. Pelindo III (Persero) Tanjung Emas,,,,,,,,,,,,,,,,,,,,,,,,,,,,,,,,,,,,,Pelabuhan Pengumpan Regional,PR
154,-7.7310791,108.9935913,Tanjung Intan  ,CXP,CB01050400,WGS1984,,Peta Sebaran Pelabuhan Umum skala 1:50.000.xml,Kesyahbandaraan dan Otoritas Pelabuhan,Kantor Kesyahbandaran dan Otoritas Pelabuhan Kelas II Tanjung Intan,0,,Jawa Tengah,Cilacap  ,33,33.01,,,,,,,,,,,,,Operasi,1,,,,,,,-,,,,,,,,,,,,,,,,,,,,,,,,,,,,,,,,,,,,,Pelabuhan Pengumpan,PP
159,-6.7023926,111.1547852,Juwana   ,JWA,CB01050400,WGS1984,,Peta Sebaran Pelabuhan Umum skala 1:50.000.xml,Unit Penyelenggara Pelabuhan,Kantor Unit Penyelenggara Pelabuhan Kelas III Juwana,PATI,,Jawa Tengah,Pati  ,33,33.18,,,,,,,,,,,,,Operasi,1,,,,,,,-,,,,,,,,,,,,,,,,,,,,,,,,,,,,,,,,,,,,,Pelabuhan Pengumpan Regional,PR
160,-6.86014,109.6927,Pekalongan   ,PEX,CB01050400,WGS1984,,Peta Sebaran Pelabuhan Umum skala 1:50.000.xml,0,0,KOTA PEKALONGAN,,Jawa Tengah,Pekalongan  ,33,33.26,,,,,,,,,,,,,0,,,,,,,,0,,,,,,,,,,,,,,,,,,,,,,,,,,,,,,,,,,,,,Pelabuhan Lokal,PL
161,-6.8580933,109.6921997,Pemalang   ,IPL,CB01050400,WGS1984,,Peta Sebaran Pelabuhan Umum skala 1:50.000.xml,Unit Penyelenggara Pelabuhan,Kantor Unit Penyelenggara Pelabuhan Kelas III Pelabuhan Likupang,KOTA PEKALONGAN,,Jawa Tengah,Pemalang  ,33,33.27,,,,,,,,,,,,,Operasi,1,,,,,,,-,,,,,,,,,,,,,,,,,,,,,,,,,,,,,,,,,,,,,Pelabuhan Lokal,PL
162,-6.6931152,111.3395996,Rembang/Tasik Agung  ,RBG,CB01050400,WGS1984,,Peta Sebaran Pelabuhan Umum skala 1:50.000.xml,Unit Penyelenggara Pelabuhan,Kantor Unit Penyelenggara Pelabuhan Kelas III Rembang,REMBANG,,Jawa Tengah,Rembang  ,33,33.17,,,,,,,,,,,,,Operasi,1,,,,,,,-,,,,,,,,,,,,,,,,,,,,,,,,,,,,,,,,,,,,,Pelabuhan Pengumpan Regional,PR
163,-6.6317749,111.5438232,Rembang/ Sluke   ,RNE,CB01050400,WGS1984,,Peta Sebaran Pelabuhan Umum skala 1:50.000.xml,Unit Penyelenggara Pelabuhan,Kantor Unit Penyelenggara Pelabuhan Kelas III Rembang,REMBANG,,Jawa Tengah,Rembang  ,33,33.17,,,,,,,,,,,,,Operasi,1,,,,,,,-,,,,,,,,,,,,,,,,,,,,,,,,,,,,,,,,,,,,,Pelabuhan Pengumpan Regional,PR
164,-6.9403076,110.4240112,Tanjung Emas  ,SRG,CB01050400,WGS1984,,Peta Sebaran Pelabuhan Umum skala 1:50.000.xml,Kesyahbandaraan dan Otoritas Pelabuhan,Kantor Kesyahbandaran dan Otoritas Pelabuhan Kelas I Tanjung Emas,Jl. Yos Sudarso No. 30 Kel. Tanjung Emas Kec. Semarang Jateng 50174 Telp/Fax. 024-3852335 ksoptanjungemas@dephub.go.id,,Jawa Tengah,Semarang  ,33,33.22,,,,,,,,,,,,,Operasi,1,,,,,,,-,,,,,,,,,,,,,,,,,,,,,,,,,,,,,,,,,,,,,Pelabuhan Utama,PU
165,-6.8516846,109.1378174,Tegal   ,TEG,CB01050400,WGS1984,,Peta Sebaran Pelabuhan Umum skala 1:50.000.xml,Kesyahbandaraan dan Otoritas Pelabuhan,Kantor Kesyahbandaran dan Otoritas Pelabuhan Kelas IV Tegal,-,,Jawa Tengah,Tegal  ,33,33.28,,,,,,,,,,,,,Operasi,1,,,,,,,PT. Pelindo III (Persero) Tanjung Emas,,,,,,,,,,,,,,,,,,,,,,,,,,,,,,,,,,,,,Pelabuhan Pengumpan,PP
166,-6.8850708,113.0856323,Telaga Biru  ,TGU,CB01050400,WGS1984,,Peta Sebaran Pelabuhan Umum skala 1:50.000.xml,Unit Penyelenggara Pelabuhan,Kantor Unit Penyelenggara Pelabuhan Kelas III Telaga Biru,Jl. Pelabuhan No. 54 Telagabiru Bangkalan Jawa Timur 69156,,Jawa Timur,Bangkalan  ,35,35.26,,,,,,,,,,,,,Operasi,1,,,,,,,-,,,,,,,,,,,,,,,,,,,,,,,,,,,,,,,,,,,,,Pelabuhan Pengumpan Regional,PR
167,-8.1281128,114.3998413,Tanjung Wangi ,BJU,CB01050400,WGS1984,,Peta Sebaran Pelabuhan Umum skala 1:50.000.xml,Kesyahbandaraan dan Otoritas Pelabuhan,Kantor Kesyahbandaran dan Otoritas Pelabuhan Kelas III Tanjung Wangi,-,,Jawa Timur,Banyuwangi ,35,35.1,,,,,,,,,,,,,Operasi,1,,,,,,,PT. Pelindo III (Persero) Tanjung Wangi,,,,,,,,,,,,,,,,,,,,,,,,,,,,,,,,,,,,,Pelabuhan Pengumpan,PP
168,-8.14573,114.4009,Ketapang  ,IKL,CB01050400,WGS1984,,Peta Sebaran Pelabuhan Umum skala 1:50.000.xml,0,0,Jl. Gajah Mada No. 542 Komplek Pelabuhan Sukabangun Ketapang Kalimantan Barat 78851,,Jawa Timur,Banyuwangi ,35,35.1,,,,,,,,,,,,,0,,,,,,,,0,,,,,,,,,,,,,,,,,,,,,,,,,,,,,,,,,,,,,Pelabuhan Pengumpan Regional,PR
169,-8.2019653,114.3859863,Banyu Wangi/ Boom,BWB,CB01050400,WGS1984,,Peta Sebaran Pelabuhan Umum skala 1:50.000.xml,Kesyahbandaraan dan Otoritas Pelabuhan,Kantor Kesyahbandaran dan Otoritas Pelabuhan Kelas III Tanjung Wangi,Jl. Jend. Gatot Subroto No. 2 Komplek Pelabuhan LCM Ketapang Banyuwangi Jawa Timur - 68401,,Jawa Timur,Banyuwangi ,35,35.1,,,,,,,,,,,,,Operasi,1,,,,,,,PT. Pelindo III (Persero) Tanjung Wangi,,,,,,,,,,,,,,,,,,,,,,,,,,,,,,,,,,,,,Pelabuhan Pengumpan Regional,PR
170,-5.8526001,112.642395,Bawean   ,BWN,CB01050400,WGS1984,,Peta Sebaran Pelabuhan Umum skala 1:50.000.xml,Unit Penyelenggara Pelabuhan,Kantor Unit Penyelenggara Pelabuhan Kelas III Bawean,Jl Beringinan No. 1 Sangka Pura Jawa Timur 61181,,Jawa Timur,Gresik  ,35,35.25,,,,,,,,,,,,,Operasi,1,,,,,,,-,,,,,,,,,,,,,,,,,,,,,,,,,,,,,,,,,,,,,Pelabuhan Pengumpan Regional,PR
171,-7.1538696,112.663208,Gresik   ,GRE,CB01050400,WGS1984,,Peta Sebaran Pelabuhan Umum skala 1:50.000.xml,Kesyahbandaraan dan Otoritas Pelabuhan,Kantor Kesyahbandaran dan Otoritas Pelabuhan Kelas III Gresik,Jl. Yos Sudarso No. 36 Gresik Jawa Timur 61114,,Jawa Timur,Gresik  ,35,35.25,,,,,,,,,,,,,Operasi,1,,,,,,,PT. Pelindo III (Persero) Gresik,,,,,,,,,,,,,,,,,,,,,,,,,,,,,,,,,,,,,Pelabuhan Pengumpan,PP
172,-6.8781128,112.2684326,Brondong   ,BNQ,CB01050400,WGS1984,,Peta Sebaran Pelabuhan Umum skala 1:50.000.xml,Unit Penyelenggara Pelabuhan,Kantor Unit Penyelenggara Pelabuhan Kelas III Brondong,"Jl. Pelabuhan No. 1 Sedayulawas Kec. Brondong Lamongan, Jawa Timur - 662814",,Jawa Timur,Lamongan  ,35,35.24,,,,,,,,,,,,,Operasi,1,,,,,,,-,,,,,,,,,,,,,,,,,,,,,,,,,,,,,,,,,,,,,Pelabuhan Pengumpan Regional,PR
173,-6.8641968,112.4119873,Tanjung Pakis  ,TJP,CB01050400,WGS1984,,Peta Sebaran Pelabuhan Umum skala 1:50.000.xml,Unit Penyelenggara Pelabuhan,Kantor Unit Penyelenggara Pelabuhan Kelas III Brondong,"Jl. Pelabuhan No. 1 Sedayulawas Kec. Brondong Lamongan, Jawa Timur - 662814",,Jawa Timur,Lamongan  ,35,35.24,,,,,,,,,,,,,Operasi,1,,,,,,,-,,,,,,,,,,,,,,,,,,,,,,,,,,,,,,,,,,,,,Pelabuhan Pengumpan,PP
174,-8.2263546,111.0743859,Pacitan   ,PCI,CB01050400,WGS1984,,Peta Sebaran Pelabuhan Umum skala 1:50.000.xml,Unit Penyelenggara Pelabuhan,Kantor Unit Penyelenggara Pelabuhan Kelas III Brondong,"Jl. Pelabuhan No. 1 Sedayulawas Kec. Brondong Lamongan, Jawa Timur - 662814",,Jawa Timur,Pacitan  ,35,35.01,,,,,,,,,,,,,Operasi,1,,,,,,,-,,,,,,,,,,,,,,,,,,,,,,,,,,,,,,,,,,,,,Pelabuhan Pengumpan,PP
175,-7.2293701,113.4492188,Branta   ,SNP,CB01050400,WGS1984,,Peta Sebaran Pelabuhan Umum skala 1:50.000.xml,Unit Penyelenggara Pelabuhan,Kantor Unit Penyelenggara Pelabuhan Kelas III Branta,"Jl. Pelabuhan Branta No. 1, Tlanakan Pamekasan - 69371",,Jawa Timur,Pamekasan  ,35,35.28,,,,,,,,,,,,,Operasi,1,,,,,,,-,,,,,,,,,,,,,,,,,,,,,,,,,,,,,,,,,,,,,Pelabuhan Pengumpan Regional,PR
176,-6.885376,113.62323,Pasean   ,PSN,CB01050400,WGS1984,,Peta Sebaran Pelabuhan Umum skala 1:50.000.xml,Unit Penyelenggara Pelabuhan,Kantor Unit Penyelenggara Pelabuhan Kelas III Telaga Biru,Jl. Pelabuhan No. 54 Telagabiru Bangkalan Jawa Timur 69156,,Jawa Timur,Pamekasan  ,35,35.28,,,,,,,,,,,,,Operasi,1,,,,,,,-,,,,,,,,,,,,,,,,,,,,,,,,,,,,,,,,,,,,,Pelabuhan Lokal,PL
177,-7.6300049,112.9186401,Pasuruan   ,PAZ,CB01050400,WGS1984,,Peta Sebaran Pelabuhan Umum skala 1:50.000.xml,Kesyahbandaraan dan Otoritas Pelabuhan,Kantor Kesyahbandaran dan Otoritas Pelabuhan Kelas V Pasuruan,Jl. Yos Sudarso No. 158 Pasuruan Jatim 67126,,Jawa Timur,Pasuruan  ,35,35.14,,,,,,,,,,,,,Operasi,1,,,,,,,PT. Pelindo III (Persero) Tanjung Tembaga,,,,,,,,,,,,,,,,,,,,,,,,,,,,,,,,,,,,,Pelabuhan Pengumpan Regional,PR
178,-7.7150879,113.2161865,Probolinggo   ,AEA,CB01050400,WGS1984,,Peta Sebaran Pelabuhan Umum skala 1:50.000.xml,Kesyahbandaraan dan Otoritas Pelabuhan,Kantor Kesyahbandaran dan Otoritas Pelabuhan Kelas IV Probolinggo,-,,Jawa Timur,Probolinggo  ,35,35.13,,,,,,,,,,,,,Operasi,1,,,,,,,PT. Pelindo III (Persero) Tanjung Tembaga,,,,,,,,,,,,,,,,,,,,,,,,,,,,,,,,,,,,,Pelabuhan Pengumpan,PP
179,-7.6807861,113.2478027,Giliketapang   ,GEG,CB01050400,WGS1984,,Peta Sebaran Pelabuhan Umum skala 1:50.000.xml,Kesyahbandaraan dan Otoritas Pelabuhan,Kantor Kesyahbandaran dan Otoritas Pelabuhan Kelas IV Probolinggo,-,,Jawa Timur,Probolinggo  ,35,35.13,,,,,,,,,,,,,Operasi,1,,,,,,,-,,,,,,,,,,,,,,,,,,,,,,,,,,,,,,,,,,,,,Pelabuhan Lokal,PL
180,-7.3065796,113.2081909,Glimandangin   ,GNN,CB01050400,WGS1984,,Peta Sebaran Pelabuhan Umum skala 1:50.000.xml,Unit Penyelenggara Pelabuhan,Kantor Unit Penyelenggara Pelabuhan Kelas III Branta,"Jl. Pelabuhan Branta No. 1, Tlanakan Pamekasan - 69371",,Jawa Timur,Sampang  ,35,35.27,,,,,,,,,,,,,Operasi,1,,,,,,,-,,,,,,,,,,,,,,,,,,,,,,,,,,,,,,,,,,,,,Pelabuhan Lokal,PL
181,-7.2213745,113.2977905,Sampang   ,SAG,CB01050400,WGS1984,,Peta Sebaran Pelabuhan Umum skala 1:50.000.xml,Unit Penyelenggara Pelabuhan,Kantor Unit Penyelenggara Pelabuhan Kelas III Branta,"Jl. Pelabuhan Branta No. 1, Tlanakan Pamekasan - 69371",,Jawa Timur,Sampang  ,35,35.27,,,,,,,,,,,,,Operasi,1,,,,,,,-,,,,,,,,,,,,,,,,,,,,,,,,,,,,,,,,,,,,,Pelabuhan Pengumpan Regional,PR
182,-7.22088,113.2978,Taddan   ,ITV,CB01050400,WGS1984,,Peta Sebaran Pelabuhan Umum skala 1:50.000.xml,0,0,"Jl. Pelabuhan Branta No. 1, Tlanakan Pamekasan - 69371",,Jawa Timur,Sampang  ,35,35.27,,,,,,,,,,,,,0,,,,,,,,0,,,,,,,,,,,,,,,,,,,,,,,,,,,,,,,,,,,,,Pelabuhan Lokal,PL
183,-7.6246948,114.0130005,Kalbut   ,KSO,CB01050400,WGS1984,,Peta Sebaran Pelabuhan Umum skala 1:50.000.xml,Unit Penyelenggara Pelabuhan,Kantor Unit Penyelenggara Pelabuhan Kelas III Kalbut,"Jl. Pelabuhan Kalbut Situbondo, Jawa Timur - 68363",,Jawa Timur,Situbondo  ,35,35.12,,,,,,,,,,,,,Operasi,1,,,,,,,-,,,,,,,,,,,,,,,,,,,,,,,,,,,,,,,,,,,,,Pelabuhan Pengumpan,PP
184,-7.6898804,113.9230347,Panarukan   ,PRN,CB01050400,WGS1984,,Peta Sebaran Pelabuhan Umum skala 1:50.000.xml,Kesyahbandaraan dan Otoritas Pelabuhan,Kantor Kesyahbandaran dan Otoritas Pelabuhan Kelas V Panarukan,"Jl. Pelabuhan No.1 Panurukan, Jatim - 68351",,Jawa Timur,Situbondo  ,35,35.12,,,,,,,,,,,,,Operasi,1,,,,,,,PT. Pelindo III (Persero) Tanjung Tembaga,,,,,,,,,,,,,,,,,,,,,,,,,,,,,,,,,,,,,Pelabuhan Pengumpan Regional,PR
185,-7.0567017,113.9440308,Kalianget   ,KAT,CB01050400,WGS1984,,Peta Sebaran Pelabuhan Umum skala 1:50.000.xml,Kesyahbandaraan dan Otoritas Pelabuhan,Kantor Kesyahbandaran dan Otoritas Pelabuhan Kelas V Kalianget,Jl. Komplek Pelabuhan No. 02 Kalianget Sumenep Jawa Timur 69471,,Jawa Timur,Sumenep  ,35,35.29,,,,,,,,,,,,,Operasi,1,,,,,,,PT. Pelindo III (Persero) Gresik,,,,,,,,,,,,,,,,,,,,,,,,,,,,,,,,,,,,,Pelabuhan Pengumpan Regional,PR
186,-5.5783691,114.4147949,Masalembo   ,MSI,CB01050400,WGS1984,,Peta Sebaran Pelabuhan Umum skala 1:50.000.xml,Unit Penyelenggara Pelabuhan,Kantor Unit Penyelenggara Pelabuhan Kelas III Masalembo,"Jl. Raya Pelabuhan No. 1 Masalembu, Sumenep, Jawa Timur - 69492",,Jawa Timur,Sumenep  ,35,35.29,,,,,,,,,,,,,Operasi,1,,,,,,,-,,,,,,,,,,,,,,,,,,,,,,,,,,,,,,,,,,,,,Pelabuhan Pengumpan Regional,PR
187,-7.1704712,114.3265991,Sapudi   ,ISG,CB01050400,WGS1984,,Peta Sebaran Pelabuhan Umum skala 1:50.000.xml,Unit Penyelenggara Pelabuhan,Kantor Unit Penyelenggara Pelabuhan Kelas III Sapudi,Jl. Pelabuhan No. 1 Gawam Sapudi Kab. Sumenep Madura Jawa Timur 69483,,Jawa Timur,Sumenep  ,35,35.29,,,,,,,,,,,,,Operasi,1,,,,,,,-,,,,,,,,,,,,,,,,,,,,,,,,,,,,,,,,,,,,,Pelabuhan Pengumpan Regional,PR
188,-7.1026001,115.9060059,Sapeken   ,SPN,CB01050400,WGS1984,,Peta Sebaran Pelabuhan Umum skala 1:50.000.xml,Unit Penyelenggara Pelabuhan,Kantor Unit Penyelenggara Pelabuhan Kelas III Sapeken,"Jl. Pelabuhan No. 01 Sapeken Suminto, Madura Jatim",,Jawa Timur,Sumenep  ,35,35.29,,,,,,,,,,,,,Operasi,1,,,,,,,-,,,,,,,,,,,,,,,,,,,,,,,,,,,,,,,,,,,,,Pelabuhan Pengumpan Regional,PR
189,-7.1030884,115.9052124,Kangean   ,KNN,CB01050400,WGS1984,,Peta Sebaran Pelabuhan Umum skala 1:50.000.xml,Unit Penyelenggara Pelabuhan,Kantor Unit Penyelenggara Pelabuhan Kelas III Sapeken,"Jl. Pelabuhan No. 01 Sapeken Suminto, Madura Jatim",,Jawa Timur,Sumenep  ,35,35.29,,,,,,,,,,,,,Operasi,1,,,,,,,-,,,,,,,,,,,,,,,,,,,,,,,,,,,,,,,,,,,,,Pelabuhan Pengumpan Regional,PR
190,-5.0371704,114.6026001,Keramaian   ,KRN,CB01050400,WGS1984,,Peta Sebaran Pelabuhan Umum skala 1:50.000.xml,Unit Penyelenggara Pelabuhan,Kantor Unit Penyelenggara Pelabuhan Kelas III Masalembo,"Jl. Raya Pelabuhan No. 1 Masalembu, Sumenep, Jawa Timur - 69492",,Jawa Timur,Sumenep  ,35,35.29,,,,,,,,,,,,,Operasi,1,,,,,,,-,,,,,,,,,,,,,,,,,,,,,,,,,,,,,,,,,,,,,Pelabuhan Lokal,PL
191,-7.1542969,114.6251831,Pulau Raas  ,RAS,CB01050400,WGS1984,,Peta Sebaran Pelabuhan Umum skala 1:50.000.xml,Unit Penyelenggara Pelabuhan,Kantor Unit Penyelenggara Pelabuhan Kelas III Sapudi,Jl. Pelabuhan No. 1 Gawam Sapudi Kab. Sumenep Madura Jawa Timur 69483,,Jawa Timur,Sumenep  ,35,35.29,,,,,,,,,,,,,Operasi,1,,,,,,,-,,,,,,,,,,,,,,,,,,,,,,,,,,,,,,,,,,,,,Pelabuhan Lokal,PL
192,-7.1976929,112.7260132,Tanjung Perak  ,SUB,CB01050400,WGS1984,,Peta Sebaran Pelabuhan Umum skala 1:50.000.xml,Otoritas Pelabuhan,Kantor Otoritas Pelabuhan Utama Tanjung Perak,Jl. Kalimas Baru No. 194 Surabaya Jawa Timur 60165,,Jawa Timur,Surabaya  ,35,35.78,,,,,,,,,,,,,Operasi,1,,,,,,,PT. Pelindo III (Persero) Tanjung Perak,,,,,,,,,,,,,,,,,,,,,,,,,,,,,,,,,,,,,Pelabuhan Utama,PU
193,-8.1029663,115.0881958,Buleleng (Sangsit)  ,BUG,CB01050400,WGS1984,,Peta Sebaran Pelabuhan Umum skala 1:50.000.xml,Unit Penyelenggara Pelabuhan,Kantor Unit Penyelenggara Pelabuhan Kelas III Buleleng,"Jl. Pabean Sangsit Singaraja Buleleng, Bali - 81171",,Bali,Buleleng  ,51,51.08,,,,,,,,,,,,,Operasi,1,,,,,,,-,,,,,,,,,,,,,,,,,,,,,,,,,,,,,,,,,,,,,Pelabuhan Pengumpan Regional,PR
194,-8.1882935,114.8317871,Celukan Bawang  ,CEB,CB01050400,WGS1984,,Peta Sebaran Pelabuhan Umum skala 1:50.000.xml,Kesyahbandaraan dan Otoritas Pelabuhan,Kantor Kesyahbandaran dan Otoritas Pelabuhan Kelas V Celukan Bawang,Jl. Pelabuhan No. 36 Celukan Bawang Bali 81155,,Bali,Buleleng  ,51,51.08,,,,,,,,,,,,,Operasi,1,,,,,,,PT. Pelindo III (Persero) Celukan Bawang,,,,,,,,,,,,,,,,,,,,,,,,,,,,,,,,,,,,,Pelabuhan Pengumpan,PP
195,-8.7440796,115.2108154,Benoa   ,BOA,CB01050400,WGS1984,,Peta Sebaran Pelabuhan Umum skala 1:50.000.xml,Kesyahbandaraan dan Otoritas Pelabuhan,Kantor Kesyahbandaran dan Otoritas Pelabuhan Kelas II Benoa,"Jl. Raya Pelabuhan Benoa, Denpasar Bali 80223",,Bali,Denpasar  ,51,51.71,,,,,,,,,,,,,Operasi,1,,,,,,,PT. Pelindo III (Persero) Benoa,,,,,,,,,,,,,,,,,,,,,,,,,,,,,,,,,,,,,Pelabuhan Utama,PU
197,-8.5083008,115.5189819,Labuan Amuk/ Tanahampo  ,LKO,CB01050400,WGS1984,,Peta Sebaran Pelabuhan Umum skala 1:50.000.xml,Unit Penyelenggara Pelabuhan,Kantor Unit Penyelenggara Pelabuhan Kelas III Padang Bai,"Jl. Didalam Areal Pelabuhan Penyebrangan Padangbai, Bali 80872",,Bali,Karangasem  ,51,51.07,,,,,,,,,,,,,Operasi,1,,,,,,,PT. Pelindo III (Persero) Benoa,,,,,,,,,,,,,,,,,,,,,,,,,,,,,,,,,,,,,Pelabuhan Pengumpan,PP
198,-8.5314,115.5096,Padang Bai  ,PBI,CB01050400,WGS1984,,Peta Sebaran Pelabuhan Umum skala 1:50.000.xml,Unit Penyelenggara Pelabuhan,0,"Jl. Didalam Areal Pelabuhan Penyebrangan Padangbai, Bali 80872",,Bali,Karangasem  ,51,51.07,,,,,,,,,,,,,0,,,,,,,,0,,,,,,,,,,,,,,,,,,,,,,,,,,,,,,,,,,,,,Pelabuhan Lokal,PL
199,-8.6766968,115.487793,Nusa Penida (Toyapakeh) ,NPE,CB01050400,WGS1984,,Peta Sebaran Pelabuhan Umum skala 1:50.000.xml,Unit Penyelenggara Pelabuhan,Kantor Unit Penyelenggara Pelabuhan Kelas III Nusa Penida,Jl. Desa Ped Kec. Nusa Peninda Kab. Klungkung - Bali,,Bali,Klungkung  ,51,51.05,,,,,,,,,,,,,Operasi,1,,,,,,,-,,,,,,,,,,,,,,,,,,,,,,,,,,,,,,,,,,,,,Pelabuhan Pengumpan Regional,PR
200,-8.4475098,118.7122192,Bima   ,BMU,CB01050400,WGS1984,,Peta Sebaran Pelabuhan Umum skala 1:50.000.xml,Kesyahbandaraan dan Otoritas Pelabuhan,Kantor Kesyahbandaran dan Otoritas Pelabuhan Kelas IV Bima,Jl. Martadinata No. 1 Bima - Nusa Tenggara Barat 84114,,Nusa Tenggara Barat,Bima  ,52,52.06,,,,,,,,,,,,,Operasi,1,,,,,,,PT. Pelindo III (Persero) Bima,,,,,,,,,,,,,,,,,,,,,,,,,,,,,,,,,,,,,Pelabuhan Pengumpan,PP
201,-8.5679932,119.0186157,Sape   ,SAP,CB01050400,WGS1984,,Peta Sebaran Pelabuhan Umum skala 1:50.000.xml,Unit Penyelenggara Pelabuhan,Kantor Unit Penyelenggara Pelabuhan Kelas III Sape,Jl. Pelabuhan Niaga No. 1 Sape Bima Kab. Bima Nusa Tenggara Barat,,Nusa Tenggara Barat,Bima  ,52,52.06,,,,,,,,,,,,,Operasi,1,,,,,,,-,,,,,,,,,,,,,,,,,,,,,,,,,,,,,,,,,,,,,Pelabuhan Pengumpan Regional,PR
202,-8.7099485,118.8196293,Waworada   ,WOA,CB01050400,WGS1984,,Peta Sebaran Pelabuhan Umum skala 1:50.000.xml,Unit Penyelenggara Pelabuhan,Kantor Unit Penyelenggara Pelabuhan Kelas III Sape,Jl. R. E Marthadinata No. 7 Maumere - Nusa Tenggara Timur 86113,,Nusa Tenggara Barat,Bima  ,52,52.06,,,,,,,,,,,,,Operasi,1,,,,,,,-,,,,,,,,,,,,,,,,,,,,,,,,,,,,,,,,,,,,,Pelabuhan Pengumpan Regional,PR
203,-8.2145996,117.710022,Calabai   ,CLI,CB01050400,WGS1984,,Peta Sebaran Pelabuhan Umum skala 1:50.000.xml,Unit Penyelenggara Pelabuhan,Kantor Unit Penyelenggara Pelabuhan Kelas III Calabahi,"Jl. Raya Pelabuhan Calabahi, Kab. Dompu PO.BOX. 123 Dompu Nusa Tenggara Barat 84200",,Nusa Tenggara Barat,Dompu  ,52,52.05,,,,,,,,,,,,,Operasi,1,,,,,,,-,,,,,,,,,,,,,,,,,,,,,,,,,,,,,,,,,,,,,Pelabuhan Lokal,PL
204,-8.5559692,118.2197876,Kempo   ,KEM,CB01050400,WGS1984,,Peta Sebaran Pelabuhan Umum skala 1:50.000.xml,Unit Penyelenggara Pelabuhan,Kantor Unit Penyelenggara Pelabuhan Kelas III Calabahi,"Jl. Raya Pelabuhan Calabahi, Kab. Dompu PO.BOX. 123 Dompu Nusa Tenggara Barat 84200",,Nusa Tenggara Barat,Dompu  ,52,52.05,,,,,,,,,,,,,Operasi,1,,,,,,,-,,,,,,,,,,,,,,,,,,,,,,,,,,,,,,,,,,,,,Pelabuhan Lokal,PL
205,-8.7305908,116.0718384,Lembar  ,LMR,CB01050400,WGS1984,,Peta Sebaran Pelabuhan Umum skala 1:50.000.xml,Kesyahbandaraan dan Otoritas Pelabuhan,Kantor Kesyahbandaran dan Otoritas Pelabuhan Kelas III Lembar,"Jl. Raya Pelabuhan Lembar, Lombok Barat - NTB 83364",,Nusa Tenggara Barat,Lombok Barat ,52,52.01,,,,,,,,,,,,,Operasi,1,,,,,,,PT. Pelindo III (Persero) Lembar,,,,,,,,,,,,,,,,,,,,,,,,,,,,,,,,,,,,,Pelabuhan Pengumpan,PP
206,-8.5736919,115.9149668,Ampenan  ,AMP,CB01050400,WGS1984,,Peta Sebaran Pelabuhan Umum skala 1:50.000.xml,0,0,LOMBOK BARAT,,Nusa Tenggara Barat,Lombok Barat ,52,52.01,,,,,,,,,,,,,0,,,,,,,,0,,,,,,,,,,,,,,,,,,,,,,,,,,,,,,,,,,,,,Pelabuhan Lokal,PL
207,-8.4998169,116.6724243,Labuhan Lombok ,LLO,CB01050400,WGS1984,,Peta Sebaran Pelabuhan Umum skala 1:50.000.xml,Unit Penyelenggara Pelabuhan,Kantor Unit Penyelenggara Pelabuhan Kelas III Labuhan Lombok,"Jl. Khayangan Labuhan Lombok Kec. Pringgabaya Kab. Lombok, Timur Nusa Tenggara Barat - 83655",,Nusa Tenggara Barat,Lombok Timur ,52,52.03,,,,,,,,,,,,,Operasi,1,,,,,,,-,,,,,,,,,,,,,,,,,,,,,,,,,,,,,,,,,,,,,Pelabuhan Pengumpan,PP
208,-8.6997681,116.5732422,Labuhan Haji ,LHJ,CB01050400,WGS1984,,Peta Sebaran Pelabuhan Umum skala 1:50.000.xml,Unit Penyelenggara Pelabuhan,Kantor Unit Penyelenggara Pelabuhan Kelas III Labuhan Lombok,"Jl. Khayangan Labuhan Lombok Kec. Pringgabaya Kab. Lombok, Timur Nusa Tenggara Barat - 83655",,Nusa Tenggara Barat,Lombok Timur ,52,52.03,,,,,,,,,,,,,Operasi,1,,,,,,,-,,,,,,,,,,,,,,,,,,,,,,,,,,,,,,,,,,,,,Pelabuhan Lokal,PL
209,-8.3933106,116.0994263,Pemenang  ,MEN,CB01050400,WGS1984,,Peta Sebaran Pelabuhan Umum skala 1:50.000.xml,Unit Penyelenggara Pelabuhan,Kantor Unit Penyelenggara Pelabuhan Kelas III Pemenang,"Jl. Pariwisata Gili Indah Pemenang Kab. Lombok Utara, Pemenang NTB 83352",,Nusa Tenggara Barat,Lombok Utara ,52,52.08,,,,,,,,,,,,,Operasi,1,,,,,,,-,,,,,,,,,,,,,,,,,,,,,,,,,,,,,,,,,,,,,Pelabuhan Pengumpan Regional,PR
210,-8.22242,116.4261,Carik  ,CRI,CB01050400,WGS1984,,Peta Sebaran Pelabuhan Umum skala 1:50.000.xml,0,0,"Jl. Pariwisata Gili Indah Pemenang Kab. Lombok Utara, Pemenang NTB 83352",,Nusa Tenggara Barat,Lombok Utara ,52,52.08,,,,,,,,,,,,,0,,,,,,,,0,,,,,,,,,,,,,,,,,,,,,,,,,,,,,,,,,,,,,Pelabuhan Pengumpan Regional,PR
211,-8.4626437,117.3727467,Badas   ,BAD,CB01050400,WGS1984,,Peta Sebaran Pelabuhan Umum skala 1:50.000.xml,Kesyahbandaraan dan Otoritas Pelabuhan,Kantor Kesyahbandaran dan Otoritas Pelabuhan Kelas V Badas,Jl. Raya Pelabuhan Badas Sumbawa Besar Nusa Tenggara Barat 84351,,Nusa Tenggara Barat,Sumbawa  ,52,52.04,,,,,,,,,,,,,Operasi,1,,,,,,,PT. Pelindo III (Persero) Bima,,,,,,,,,,,,,,,,,,,,,,,,,,,,,,,,,,,,,Pelabuhan Pengumpan,PP
212,-8.8955689,116.7515869,Benete  ,BEN,CB01050400,WGS1984,,Peta Sebaran Pelabuhan Umum skala 1:50.000.xml,Unit Penyelenggara Pelabuhan,Kantor Unit Penyelenggara Pelabuhan Kelas III Benete,Jl. Pelabuhan Benete Kec.Maluku Kab. Sumbawa Barat Nusa Tenggara Barat 84357,,Nusa Tenggara Barat,Sumbawa Barat ,52,52.07,,,,,,,,,,,,,Operasi,1,,,,,,,-,,,,,,,,,,,,,,,,,,,,,,,,,,,,,,,,,,,,,Pelabuhan Pengumpan,PP
213,-8.3626099,124.0964356,Baranusa   ,BAA,CB01050400,WGS1984,,Peta Sebaran Pelabuhan Umum skala 1:50.000.xml,Unit Penyelenggara Pelabuhan,Kantor Unit Penyelenggara Pelabuhan Kelas III Baranusa,Jl.KomPulau Pelabuhan Baranusa Nusa Tenggara Timur,,Nusa Tenggara Timur,Alor  ,53,53.05,,,,,,,,,,,,,Operasi,1,,,,,,,-,,,,,,,,,,,,,,,,,,,,,,,,,,,,,,,,,,,,,Pelabuhan Pengumpan Regional,PR
214,-8.2196655,124.5162354,Kalabahi   ,KBH,CB01050400,WGS1984,,Peta Sebaran Pelabuhan Umum skala 1:50.000.xml,Kesyahbandaraan dan Otoritas Pelabuhan,Kantor Kesyahbandaran dan Otoritas Pelabuhan Kelas V Kalabahi,Jl. R.E Marthadinata No. 7 KomPulau Pelabuhan Kalabahi - Alor NTT 85813 Telp/Fax. 0386-21417 ksop_kalabahi@dephub.go.id,,Nusa Tenggara Timur,Alor  ,53,53.05,,,,,,,,,,,,,Operasi,1,,,,,,,PT. Pelindo III (Persero) Kupang,,,,,,,,,,,,,,,,,,,,,,,,,,,,,,,,,,,,,Pelabuhan Pengumpan Regional,PR
215,-8.2855835,125.1286011,Maritaing   ,MRG,CB01050400,WGS1984,,Peta Sebaran Pelabuhan Umum skala 1:50.000.xml,Kesyahbandaraan dan Otoritas Pelabuhan,Kantor Kesyahbandaran dan Otoritas Pelabuhan Kelas V Kalabahi,Jl.KomPulau Pelabuhan Baranusa Nusa Tenggara Timur,,Nusa Tenggara Timur,Alor  ,53,53.05,,,,,,,,,,,,,Operasi,1,,,,,,,PT. Pelindo III (Persero) Kupang,,,,,,,,,,,,,,,,,,,,,,,,,,,,,,,,,,,,,Pelabuhan Lokal,PL
216,-8.2565918,124.5079956,Moru   ,MOU,CB01050400,WGS1984,,Peta Sebaran Pelabuhan Umum skala 1:50.000.xml,Kesyahbandaraan dan Otoritas Pelabuhan,Kantor Kesyahbandaran dan Otoritas Pelabuhan Kelas V Kalabahi,Jl.KomPulau Pelabuhan Baranusa Nusa Tenggara Timur,,Nusa Tenggara Timur,Alor  ,53,53.05,,,,,,,,,,,,,Operasi,1,,,,,,,-,,,,,,,,,,,,,,,,,,,,,,,,,,,,,,,,,,,,,Pelabuhan Pengumpan Regional,PR
217,-8.9967651,124.8616333,Atapupu   ,AAU,CB01050400,WGS1984,,Peta Sebaran Pelabuhan Umum skala 1:50.000.xml,Unit Penyelenggara Pelabuhan,Kantor Unit Penyelenggara Pelabuhan Kelas III Atapupu,Jl. Pelabuhan No. 1 Atapupu Nusa Tenggara Timur,,Nusa Tenggara Timur,Belu  ,53,53.04,,,,,,,,,,,,,Operasi,1,,,,,,,-,,,,,,,,,,,,,,,,,,,,,,,,,,,,,,,,,,,,,Pelabuhan Pengumpan,PP
218,-8.845398,121.6420288,Ende   ,ENE,CB01050400,WGS1984,,Peta Sebaran Pelabuhan Umum skala 1:50.000.xml,Kesyahbandaraan dan Otoritas Pelabuhan,Kantor Kesyahbandaran dan Otoritas Pelabuhan Kelas V Ende,Jl. Adi Sucipto Ippi Ende NTT 86316,,Nusa Tenggara Timur,Ende  ,53,53.08,,,,,,,,,,,,,Operasi,1,,,,,,,PT. Pelindo III (Persero) Kupang,,,,,,,,,,,,,,,,,,,,,,,,,,,,,,,,,,,,,Pelabuhan Pengumpan,PP
219,-8.8549805,121.6633911,Ippi   ,IPI,CB01050400,WGS1984,,Peta Sebaran Pelabuhan Umum skala 1:50.000.xml,Kesyahbandaraan dan Otoritas Pelabuhan,Kantor Kesyahbandaran dan Otoritas Pelabuhan Kelas V Ende,Jl. Adi Sucipto Ippi Ende NTT 86316,,Nusa Tenggara Timur,Ende  ,53,53.08,,,,,,,,,,,,,Operasi,1,,,,,,,PT. Pelindo III (Persero) Kupang,,,,,,,,,,,,,,,,,,,,,,,,,,,,,,,,,,,,,Pelabuhan Pengumpan,PP
220,-8.5064697,121.8112183,Maurole   ,MUE,CB01050400,WGS1984,,Peta Sebaran Pelabuhan Umum skala 1:50.000.xml,Kesyahbandaraan dan Otoritas Pelabuhan,Kantor Kesyahbandaran dan Otoritas Pelabuhan Kelas V Ende,Jl. Adi Sucipto Ippi Ende NTT 86316,,Nusa Tenggara Timur,Ende  ,53,53.08,,,,,,,,,,,,,Operasi,1,,,,,,,PT. Pelindo III (Persero) Kupang,,,,,,,,,,,,,,,,,,,,,,,,,,,,,,,,,,,,,Pelabuhan Lokal,PL
221,-8.87881,121.5149,Pulau Ende  ,PDE,CB01050400,WGS1984,,Peta Sebaran Pelabuhan Umum skala 1:50.000.xml,0,0,Jl. Adi Sucipto Ippi Ende NTT 86316,,Nusa Tenggara Timur,Ende  ,53,53.08,,,,,,,,,,,,,0,,,,,,,,0,,,,,,,,,,,,,,,,,,,,,,,,,,,,,,,,,,,,,Pelabuhan Lokal,PL
222,-8.3421631,122.9904175,Larantuka  ,LKA,CB01050400,WGS1984,,Peta Sebaran Pelabuhan Umum skala 1:50.000.xml,Unit Penyelenggara Pelabuhan,Kantor Unit Penyelenggara Pelabuhan Kelas III Larantuka,Flores Timus-Nusa Tenggara Timur,,Nusa Tenggara Timur,Flores Timur ,53,53.06,,,,,,,,,,,,,Operasi,1,,,,,,,-,,,,,,,,,,,,,,,,,,,,,,,,,,,,,,,,,,,,,Pelabuhan Pengumpan,PP
223,-8.4315796,123.1646118,Lamakera  ,ILT,CB01050400,WGS1984,,Peta Sebaran Pelabuhan Umum skala 1:50.000.xml,Unit Penyelenggara Pelabuhan,Kantor Unit Penyelenggara Pelabuhan Kelas III Larantuka,Flores Timus-Nusa Tenggara Timur,,Nusa Tenggara Timur,Flores Timur ,53,53.06,,,,,,,,,,,,,Operasi,1,,,,,,,-,,,,,,,,,,,,,,,,,,,,,,,,,,,,,,,,,,,,,Pelabuhan Lokal,PL
224,-8.4336459,123.0872907,Menanga  ,MEH,CB01050400,WGS1984,,Peta Sebaran Pelabuhan Umum skala 1:50.000.xml,0,0,Flores Timus-Nusa Tenggara Timur,,Nusa Tenggara Timur,Flores Timur ,53,53.06,,,,,,,,,,,,,Operasi,,,,,,,,0,,,,,,,,,,,,,,,,,,,,,,,,,,,,,,,,,,,,,Pelabuhan Lokal,PL
225,-8.3565674,123.0043945,Tobilota  ,ITK,CB01050400,WGS1984,,Peta Sebaran Pelabuhan Umum skala 1:50.000.xml,Unit Penyelenggara Pelabuhan,Kantor Unit Penyelenggara Pelabuhan Kelas III Larantuka,Flores Timus-Nusa Tenggara Timur,,Nusa Tenggara Timur,Flores Timur ,53,53.06,,,,,,,,,,,,,Operasi,1,,,,,,,-,,,,,,,,,,,,,,,,,,,,,,,,,,,,,,,,,,,,,Pelabuhan Pengumpan Regional,PR
226,-8.3908691,123.1314087,Terong/Waiwerang ,WAM,CB01050400,WGS1984,,Peta Sebaran Pelabuhan Umum skala 1:50.000.xml,Unit Penyelenggara Pelabuhan,Kantor Unit Penyelenggara Pelabuhan Kelas III Larantuka,0,,Nusa Tenggara Timur,Flores Timur ,53,53.06,,,,,,,,,,,,,Operasi,1,,,,,,,-,,,,,,,,,,,,,,,,,,,,,,,,,,,,,,,,,,,,,Pelabuhan Lokal,PL
227,-8.2739868,123.092041,Waiwadan  ,WWN,CB01050400,WGS1984,,Peta Sebaran Pelabuhan Umum skala 1:50.000.xml,Unit Penyelenggara Pelabuhan,Kantor Unit Penyelenggara Pelabuhan Kelas III Larantuka,Flores Timus-Nusa Tenggara Timur,,Nusa Tenggara Timur,Flores Timur ,53,53.06,,,,,,,,,,,,,Operasi,1,,,,,,,-,,,,,,,,,,,,,,,,,,,,,,,,,,,,,,,,,,,,,Pelabuhan Lokal,PL
228,-8.2966919,123.3054199,Waiwuring  ,WWR,CB01050400,WGS1984,,Peta Sebaran Pelabuhan Umum skala 1:50.000.xml,Unit Penyelenggara Pelabuhan,Kantor Unit Penyelenggara Pelabuhan Kelas III Larantuka,Jl.Pelabuhan No. 25 Desa Babang Kec. Bacan Timur 97791,,Nusa Tenggara Timur,Flores Timur ,53,53.06,,,,,,,,,,,,,Operasi,1,,,,,,,-,,,,,,,,,,,,,,,,,,,,,,,,,,,,,,,,,,,,,Pelabuhan Lokal,PL
229,-9.344005468,124.0293801,Oepoli   ,OPI,CB01050400,WGS1984,,Peta Sebaran Pelabuhan Umum skala 1:50.000.xml,0,0,Jl. Pelabuhan No. 1 Atapupu Nusa Tenggara Timur,,Nusa Tenggara Timur,Kupang  ,53,53.01,,,,,,,,,,,,,0,,,,,,,,0,,,,,,,,,,,,,,,,,,,,,,,,,,,,,,,,,,,,,Pelabuhan Lokal,PL
230,-10.1936646,123.5275879,Tenau/ Kupang   ,TQP,CB01050400,WGS1984,,Peta Sebaran Pelabuhan Umum skala 1:50.000.xml,Kesyahbandaraan dan Otoritas Pelabuhan,Kantor Kesyahbandaran dan Otoritas Pelabuhan Kelas III Tenau,Jl. Yos Sudarso No. 27 Tenau Kupang NTT 85351,,Nusa Tenggara Timur,Kupang  ,53,53.01,,,,,,,,,,,,,Operasi,1,,,,,,,-,,,,,,,,,,,,,,,,,,,,,,,,,,,,,,,,,,,,,Pelabuhan Utama,PU
231,-9.49663,123.8083,Naikliu   ,NIU,CB01050400,WGS1984,,Peta Sebaran Pelabuhan Umum skala 1:50.000.xml,0,0,Jl. Pelabuhan No. 1 Atapupu Nusa Tenggara Timur,,Nusa Tenggara Timur,Kupang  ,53,53.01,,,,,,,,,,,,,0,,,,,,,,0,,,,,,,,,,,,,,,,,,,,,,,,,,,,,,,,,,,,,Pelabuhan Lokal,PL
232,-10.1702881,123.564209,Nunbaun Sabu (Namosain) ,NUN,CB01050400,WGS1984,,Peta Sebaran Pelabuhan Umum skala 1:50.000.xml,Kesyahbandaraan dan Otoritas Pelabuhan,Kantor Kesyahbandaran dan Otoritas Pelabuhan Kelas III Tenau,Jl. Pelabuhan No. 1 Atapupu Nusa Tenggara Timur,,Nusa Tenggara Timur,Kupang  ,53,53.01,,,,,,,,,,,,,Operasi,1,,,,,,,PT. Pelindo III (Persero) Kupang,,,,,,,,,,,,,,,,,,,,,,,,,,,,,,,,,,,,,Pelabuhan Lokal,PL
233,-8.1940918,123.8242188,Balauring   ,BRG,CB01050400,WGS1984,,Peta Sebaran Pelabuhan Umum skala 1:50.000.xml,Unit Penyelenggara Pelabuhan,Kantor Unit Penyelenggara Pelabuhan Kelas III Larantuka,Flores Timus-Nusa Tenggara Timur,,Nusa Tenggara Timur,Lembata  ,53,53.13,,,,,,,,,,,,,Operasi,1,,,,,,,-,,,,,,,,,,,,,,,,,,,,,,,,,,,,,,,,,,,,,Pelabuhan Lokal,PL
234,-8.3703003,123.4046021,Lewoleba   ,LWE,CB01050400,WGS1984,,Peta Sebaran Pelabuhan Umum skala 1:50.000.xml,Unit Penyelenggara Pelabuhan,Kantor Unit Penyelenggara Pelabuhan Kelas III Larantuka,Flores Timus-Nusa Tenggara Timur,,Nusa Tenggara Timur,Lembata  ,53,53.13,,,,,,,,,,,,,Operasi,1,,,,,,,-,,,,,,,,,,,,,,,,,,,,,,,,,,,,,,,,,,,,,Pelabuhan Pengumpan,PP
235,-8.5360718,123.4487915,Wulandoni   ,WDO,CB01050400,WGS1984,,Peta Sebaran Pelabuhan Umum skala 1:50.000.xml,Unit Penyelenggara Pelabuhan,Kantor Unit Penyelenggara Pelabuhan Kelas III Larantuka,"Jl. Pulau Fao Kec. Pilau Gebe Kab. Halmahera Tengah KomPulau Pelabuhan Gebe, Malut",,Nusa Tenggara Timur,Lembata  ,53,53.13,,,,,,,,,,,,,Operasi,1,,,,,,,-,,,,,,,,,,,,,,,,,,,,,,,,,,,,,,,,,,,,,Pelabuhan Lokal,PL
236,-8.2844849,120.453186,Reo   ,REO,CB01050400,WGS1984,,Peta Sebaran Pelabuhan Umum skala 1:50.000.xml,Unit Penyelenggara Pelabuhan,Kantor Unit Penyelenggara Pelabuhan Kelas III Reo,"Jl. Pelabuhan Reo Kec. Reo Kab. Manggarai Kediri, Nusa Tenggara Timur - 86592",,Nusa Tenggara Timur,Manggarai  ,53,53.1,,,,,,,,,,,,,Operasi,1,,,,,,,-,,,,,,,,,,,,,,,,,,,,,,,,,,,,,,,,,,,,,Pelabuhan Pengumpan,PP
237,-8.8917235,120.3047312,Pulau Mules  ,MEL,CB01050400,WGS1984,,Peta Sebaran Pelabuhan Umum skala 1:50.000.xml,Unit Penyelenggara Pelabuhan,Kantor Unit Penyelenggara Pelabuhan Kelas III Reo,"Jl. Pelabuhan Reo Kec. Reo Kab. Manggarai Kediri, Nusa Tenggara Timur - 86592",,Nusa Tenggara Timur,Manggarai  ,53,53.1,,,,,,,,,,,,,Operasi,1,,,,,,,-,,,,,,,,,,,,,,,,,,,,,,,,,,,,,,,,,,,,,Pelabuhan Lokal,PL
238,-8.4942017,119.8760376,Labuan Bajo ,LBO,CB01050400,WGS1984,,Peta Sebaran Pelabuhan Umum skala 1:50.000.xml,Unit Penyelenggara Pelabuhan,Kantor Unit Penyelenggara Pelabuhan Kelas III Labuhan Bajo,Jl. Yos Sudarso Labuan Bajo NTT 86554,,Nusa Tenggara Timur,Manggarai Barat ,53,53.15,,,,,,,,,,,,,Operasi,1,,,,,,,-,,,,,,,,,,,,,,,,,,,,,,,,,,,,,,,,,,,,,Pelabuhan Pengumpan,PP
239,-8.5720825,119.5021973,Komodo  ,KMD,CB01050400,WGS1984,,Peta Sebaran Pelabuhan Umum skala 1:50.000.xml,Unit Penyelenggara Pelabuhan,Kantor Unit Penyelenggara Pelabuhan Kelas III Labuhan Bajo,Jl. Yos Sudarso Labuan Bajo NTT 86554,,Nusa Tenggara Timur,Manggarai Barat ,53,53.15,,,,,,,,,,,,,Operasi,1,,,,,,,-,,,,,,,,,,,,,,,,,,,,,,,,,,,,,,,,,,,,,Pelabuhan Lokal,PL
240,-8.33807,120.718,Pota  ,POA,CB01050400,WGS1984,,Peta Sebaran Pelabuhan Umum skala 1:50.000.xml,0,0,"Jl. Pelabuhan Reo Kec. Reo Kab. Manggarai Kediri, Nusa Tenggara Timur - 86592",,Nusa Tenggara Timur,Manggarai Timur ,53,53.19,,,,,,,,,,,,,0,,,,,,,,0,,,,,,,,,,,,,,,,,,,,,,,,,,,,,,,,,,,,,Pelabuhan Lokal,PL
241,-8.8414917,120.7922363,Waiwole  ,WIE,CB01050400,WGS1984,,Peta Sebaran Pelabuhan Umum skala 1:50.000.xml,Unit Penyelenggara Pelabuhan,Kantor Unit Penyelenggara Pelabuhan Kelas III Reo,Jl. Pelabuhan No. 1 Atapupu Nusa Tenggara Timur,,Nusa Tenggara Timur,Manggarai Timur ,53,53.19,,,,,,,,,,,,,Operasi,1,,,,,,,-,,,,,,,,,,,,,,,,,,,,,,,,,,,,,,,,,,,,,Pelabuhan Lokal,PL
242,-8.5153809,121.3278198,Marapokot   ,MOT,CB01050400,WGS1984,,Peta Sebaran Pelabuhan Umum skala 1:50.000.xml,Unit Penyelenggara Pelabuhan,Kantor Unit Penyelenggara Pelabuhan Kelas III Marapokot,Jl. Pelabuhan Marapokot No. 01 Marapokot Nusa Tenggara Timur 86472,,Nusa Tenggara Timur,Nagekeo  ,53,53.16,,,,,,,,,,,,,Operasi,1,,,,,,,-,,,,,,,,,,,,,,,,,,,,,,,,,,,,,,,,,,,,,Pelabuhan Pengumpan Regional,PR
243,-8.9005127,121.1384277,Maumbawa   ,MMA,CB01050400,WGS1984,,Peta Sebaran Pelabuhan Umum skala 1:50.000.xml,Unit Penyelenggara Pelabuhan,Kantor Unit Penyelenggara Pelabuhan Kelas III Marapokot,Jl. Adi Sucipto Ippi Ende NTT 86316,,Nusa Tenggara Timur,Ngada  ,53,53.09,,,,,,,,,,,,,Operasi,1,,,,,,,PT. Pelindo III (Persero) Kupang,,,,,,,,,,,,,,,,,,,,,,,,,,,,,,,,,,,,,Pelabuhan Lokal,PL
244,-8.433639,121.0317,Riung   ,RIG,CB01050400,WGS1984,,Peta Sebaran Pelabuhan Umum skala 1:50.000.xml,0,0,Jl. Pelabuhan Marapokot No. 01 Marapokot Nusa Tenggara Timur 86472,,Nusa Tenggara Timur,Ngada  ,53,53.09,,,,,,,,,,,,,0,,,,,,,,0,,,,,,,,,,,,,,,,,,,,,,,,,,,,,,,,,,,,,Pelabuhan Lokal,PL
245,-10.723877,123.0440064,Baa  ,BRO,CB01050400,WGS1984,,Peta Sebaran Pelabuhan Umum skala 1:50.000.xml,Unit Penyelenggara Pelabuhan,Kantor Unit Penyelenggara Pelabuhan Kelas III Baa,Jl. Pelabuhan No. 1 Ba'a - Rote NTT,,Nusa Tenggara Timur,Rote Ndao ,53,53.14,,,,,,,,,,,,,Operasi,1,,,,,,,-,,,,,,,,,,,,,,,,,,,,,,,,,,,,,,,,,,,,,Pelabuhan Lokal,PL
246,-10.815979,122.6766357,Ndao  ,NOO,CB01050400,WGS1984,,Peta Sebaran Pelabuhan Umum skala 1:50.000.xml,Unit Penyelenggara Pelabuhan,Kantor Unit Penyelenggara Pelabuhan Kelas III Baa,Jl. Pelabuhan No. 1 Ba'a - Rote NTT,,Nusa Tenggara Timur,Rote Ndao ,53,53.14,,,,,,,,,,,,,Operasi,1,,,,,,,-,,,,,,,,,,,,,,,,,,,,,,,,,,,,,,,,,,,,,Pelabuhan Pengumpan,PP
247,-10.8656006,122.9852295,Batutua  ,BTA,CB01050400,WGS1984,,Peta Sebaran Pelabuhan Umum skala 1:50.000.xml,Unit Penyelenggara Pelabuhan,Kantor Unit Penyelenggara Pelabuhan Kelas III Baa,Jl. Pelabuhan No. 1 Ba'a - Rote NTT,,Nusa Tenggara Timur,Rote Ndao ,53,53.14,,,,,,,,,,,,,Operasi,1,,,,,,,-,,,,,,,,,,,,,,,,,,,,,,,,,,,,,,,,,,,,,Pelabuhan Lokal,PL
248,-10.5986939,123.3793945,Papela  ,NPA,CB01050400,WGS1984,,Peta Sebaran Pelabuhan Umum skala 1:50.000.xml,Unit Penyelenggara Pelabuhan,Kantor Unit Penyelenggara Pelabuhan Kelas III Baa,Jl. Pelabuhan No. 1 Ba'a - Rote NTT,,Nusa Tenggara Timur,Rote Ndao ,53,53.14,,,,,,,,,,,,,Operasi,1,,,,,,,-,,,,,,,,,,,,,,,,,,,,,,,,,,,,,,,,,,,,,Pelabuhan Lokal,PL
249,-10.4896851,121.8380127,Seba  ,ISA,CB01050400,WGS1984,,Peta Sebaran Pelabuhan Umum skala 1:50.000.xml,Unit Penyelenggara Pelabuhan,Kantor Unit Penyelenggara Pelabuhan Kelas III Seba,Jl. Pelabuhan No. 01 Kec.Sabu Barat Kab.Seburaijua Seba Nusa Tenggara Timur,,Nusa Tenggara Timur,Sabu Raijua ,53,53.2,,,,,,,,,,,,,Operasi,1,,,,,,,-,,,,,,,,,,,,,,,,,,,,,,,,,,,,,,,,,,,,,Pelabuhan Pengumpan,PP
250,-10.5078735,121.9978027,Biu  ,BBU,CB01050400,WGS1984,,Peta Sebaran Pelabuhan Umum skala 1:50.000.xml,Unit Penyelenggara Pelabuhan,Kantor Unit Penyelenggara Pelabuhan Kelas III Seba,Jl. Pelabuhan No. 01 Kec.Sabu Barat Kab.Seburaijua Seba Nusa Tenggara Timur,,Nusa Tenggara Timur,Sabu Raijua ,53,53.2,,,,,,,,,,,,,Operasi,1,,,,,,,-,,,,,,,,,,,,,,,,,,,,,,,,,,,,,,,,,,,,,Pelabuhan Lokal,PL
251,-10.6013794,121.6177979,Raijua  ,RIA,CB01050400,WGS1984,,Peta Sebaran Pelabuhan Umum skala 1:50.000.xml,Unit Penyelenggara Pelabuhan,Kantor Unit Penyelenggara Pelabuhan Kelas III Seba,Jl. Pelabuhan No. 01 Kec.Sabu Barat Kab.Seburaijua Seba Nusa Tenggara Timur,,Nusa Tenggara Timur,Sabu Raijua ,53,53.2,,,,,,,,,,,,,Operasi,1,,,,,,,-,,,,,,,,,,,,,,,,,,,,,,,,,,,,,,,,,,,,,Pelabuhan Lokal,PL
252,-8.6142651,122.2186682,Maumere/ Lorens Say ,MOF,CB01050400,WGS1984,,Peta Sebaran Pelabuhan Umum skala 1:50.000.xml,Kesyahbandaraan dan Otoritas Pelabuhan,Kantor Kesyahbandaran dan Otoritas Pelabuhan Kelas V Maumere/Lorens Say,Jl. R. E Marthadinata No. 7 Maumere - Nusa Tenggara Timur 86113,,Nusa Tenggara Timur,Sikka  ,53,53.07,,,,,,,,,,,,,Operasi,1,,,,,,,PT. Pelindo III (Persero) Maumere,,,,,,,,,,,,,,,,,,,,,,,,,,,,,,,,,,,,,Pelabuhan Pengumpan,PP
253,-8.3067017,121.736023,Palue   ,PAE,CB01050400,WGS1984,,Peta Sebaran Pelabuhan Umum skala 1:50.000.xml,Kesyahbandaraan dan Otoritas Pelabuhan,Kantor Kesyahbandaran dan Otoritas Pelabuhan Kelas V Maumere/Lorens Say,Jl. R. E Marthadinata No. 7 Maumere - Nusa Tenggara Timur 86113,,Nusa Tenggara Timur,Sikka  ,53,53.07,,,,,,,,,,,,,Operasi,1,,,,,,,PT. Pelindo III (Persero) Maumere,,,,,,,,,,,,,,,,,,,,,,,,,,,,,,,,,,,,,Pelabuhan Lokal,PL
254,-8.5587158,122.1628418,Wuring   ,WRG,CB01050400,WGS1984,,Peta Sebaran Pelabuhan Umum skala 1:50.000.xml,Kesyahbandaraan dan Otoritas Pelabuhan,Kantor Kesyahbandaran dan Otoritas Pelabuhan Kelas V Maumere/Lorens Say,Jl. Infres Waren Ureifaisei Waren Papua,,Nusa Tenggara Timur,Sikka  ,53,53.07,,,,,,,,,,,,,Operasi,1,,,,,,,PT. Pelindo III (Persero) Maumere,,,,,,,,,,,,,,,,,,,,,,,,,,,,,,,,,,,,,Pelabuhan Lokal,PL
255,-9.3809814,119.3956299,Binanatu  ,BTU,CB01050400,WGS1984,,Peta Sebaran Pelabuhan Umum skala 1:50.000.xml,Unit Penyelenggara Pelabuhan,Kantor Unit Penyelenggara Pelabuhan Kelas III Waikelo,"Jl. Waikelo Kec. Luara Kab. Sumba Barat Waikelo, Nusa Tenggara Timur - 87254",,Nusa Tenggara Timur,Sumba Barat ,53,53.12,,,,,,,,,,,,,Operasi,1,,,,,,,PT. Pelindo III (Persero) Maumere,,,,,,,,,,,,,,,,,,,,,,,,,,,,,,,,,,,,,Pelabuhan Lokal,PL
275,-2.32067,114.8761,Rangga Ilung ,RGG,CB01050400,WGS1984,,Peta Sebaran Pelabuhan Umum skala 1:50.000.xml,Unit Penyelenggara Pelabuhan,0,Jl. Bendahara No. 230 Kumai Kab. Kotawaringin Barat - Kalteng 74181,,Kalimantan Tengah,Barito Selatan ,62,62.04,,,,,,,,,,,,,0,,,,,,,,0,,,,,,,,,,,,,,,,,,,,,,,,,,,,,,,,,,,,,Pelabuhan Lokal,PL
256,-9.3897705,119.2189941,Waikelo ,WIO,CB01050400,WGS1984,,Peta Sebaran Pelabuhan Umum skala 1:50.000.xml,Unit Penyelenggara Pelabuhan,Kantor Unit Penyelenggara Pelabuhan Kelas III Waikelo,Jl. Pelabuhan Wonreli Maluku 97653,,Nusa Tenggara Timur,Sumba Barat Daya,53,53.18,,,,,,,,,,,,,Operasi,1,,,,,,,-,,,,,,,,,,,,,,,,,,,,,,,,,,,,,,,,,,,,,Pelabuhan Pengumpan Regional,PR
257,-9.36313,119.6502,Mamboro  ,MMO,CB01050400,WGS1984,,Peta Sebaran Pelabuhan Umum skala 1:50.000.xml,0,0,"Jl. Waikelo Kec. Luara Kab. Sumba Barat Waikelo, Nusa Tenggara Timur - 87254",,Nusa Tenggara Timur,Sumba Tengah ,53,53.17,,,,,,,,,,,,,0,,,,,,,,0,,,,,,,,,,,,,,,,,,,,,,,,,,,,,,,,,,,,,Pelabuhan Lokal,PL
258,-9.6380005,120.2510376,Waingapu  ,WGP,CB01050400,WGS1984,,Peta Sebaran Pelabuhan Umum skala 1:50.000.xml,Kesyahbandaraan dan Otoritas Pelabuhan,Kantor Kesyahbandaran dan Otoritas Pelabuhan Kelas V Waingapu,Jl. Trikora No. 19 Saonek Kab. Raja Ampat Prov. Papua Barat,,Nusa Tenggara Timur,Sumba Timur ,53,53.11,,,,,,,,,,,,,Operasi,1,,,,,,,PT. Pelindo III (Persero) Kupang,,,,,,,,,,,,,,,,,,,,,,,,,,,,,,,,,,,,,Pelabuhan Pengumpan,PP
259,-10.2398071,120.5706177,Baing  ,BAG,CB01050400,WGS1984,,Peta Sebaran Pelabuhan Umum skala 1:50.000.xml,Kesyahbandaraan dan Otoritas Pelabuhan,Kantor Kesyahbandaran dan Otoritas Pelabuhan Kelas V Waingapu,Jl. Nangamesi No. 11 Waingapu Nusa Tenggara Timur 87110,,Nusa Tenggara Timur,Sumba Timur ,53,53.11,,,,,,,,,,,,,Operasi,1,,,,,,,PT. Pelindo III (Persero) Kupang,,,,,,,,,,,,,,,,,,,,,,,,,,,,,,,,,,,,,Pelabuhan Lokal,PL
260,-10.3125,120.1817,Pulau Salura ,PUA,CB01050400,WGS1984,,Peta Sebaran Pelabuhan Umum skala 1:50.000.xml,0,0,Jl. Nangamesi No. 11 Waingapu Nusa Tenggara Timur 87110,,Nusa Tenggara Timur,Sumba Timur ,53,53.11,,,,,,,,,,,,,0,,,,,,,,0,,,,,,,,,,,,,,,,,,,,,,,,,,,,,,,,,,,,,Pelabuhan Lokal,PL
261,-10.0255737,124.5361939,Kolbano ,KNY,CB01050400,WGS1984,,Peta Sebaran Pelabuhan Umum skala 1:50.000.xml,Kesyahbandaraan dan Otoritas Pelabuhan,Kantor Kesyahbandaran dan Otoritas Pelabuhan Kelas V Tenau Kupang,Jl. Yos Sudarso No. 27 Tenau Kupang NTT 85351,,Nusa Tenggara Timur,Timor Tengah Selatan,53,53.02,,,,,,,,,,,,,Operasi,1,,,,,,,PT. Pelindo III (Persero) Kupang,,,,,,,,,,,,,,,,,,,,,,,,,,,,,,,,,,,,,Pelabuhan Lokal,PL
262,-9.1774902,124.4924316,Wini ,WII,CB01050400,WGS1984,,Peta Sebaran Pelabuhan Umum skala 1:50.000.xml,Unit Penyelenggara Pelabuhan,Kantor Unit Penyelenggara Pelabuhan Kelas III Atapupu,"Jl. Waikelo Kec. Luara Kab. Sumba Barat Waikelo, Nusa Tenggara Timur - 87254",,Nusa Tenggara Timur,Timor Tengah Utara,53,53.03,,,,,,,,,,,,,Operasi,1,,,,,,,-,,,,,,,,,,,,,,,,,,,,,,,,,,,,,,,,,,,,,Pelabuhan Pengumpan,PP
